{"type": "FeatureCollection", "features": [{"type":"Feature","geometry":{"type":"Point","coordinates":[12.496365,41.902783]},"properties":{"pres_id":69,"cartodb_id":3097,"city_id":8,"year":2015,"confidence":false,"notes":"","date_convert":"2015-12-12,2015-12-15","city":"Rome","country":"Italy","pres_sos":"John Forbes Kerry","position":"SOS","new_region":"Western Europe","remarks":"Attended a Ministerial Meeting on Libya.","distance":7225571.0860885}},{"type":"Feature","geometry":{"type":"Point","coordinates":[2.352222,48.856614]},"properties":{"pres_id":69,"cartodb_id":3096,"city_id":6,"year":2015,"confidence":false,"notes":"","date_convert":"2015-12-08,2015-12-12","city":"Paris ","country":"France","pres_sos":"John Forbes Kerry","position":"SOS","new_region":"Western Europe","remarks":"Attended the UN Climate Change Summit.","distance":6173365.60870437}},{"type":"Feature","geometry":{"type":"Point","coordinates":[20.448922,44.786568]},"properties":{"pres_id":69,"cartodb_id":3093,"city_id":60,"year":2015,"confidence":false,"notes":"","date_convert":"2015-12-02,2015-12-03","city":"Belgrade","country":"Yugoslavia","pres_sos":"John Forbes Kerry","position":"SOS","new_region":"Eastern Europe and Central Asia","remarks":"Attended an OSCE Ministerial Meeting and a meeting of OSCE Minsk Group Co-Chair Countries. Met with Prime Minister Aleksandar Vucic and Ukrainian Foreign Minister Pavlo Klimkin.","distance":7597780.13347184}},{"type":"Feature","geometry":{"type":"Point","coordinates":[4.35171,50.85034]},"properties":{"pres_id":69,"cartodb_id":3091,"city_id":40,"year":2015,"confidence":false,"notes":"","date_convert":"2015-12-01,2015-12-02","city":"Brussels","country":"Belgium","pres_sos":"John Forbes Kerry","position":"SOS","new_region":"Western Europe","remarks":"Attended a NATO Foreign Ministers Meeting.","distance":6224186.6208891}},{"type":"Feature","geometry":{"type":"Point","coordinates":[2.352222,48.856614]},"properties":{"pres_id":70,"cartodb_id":2830,"city_id":6,"year":2015,"confidence":false,"notes":"","date_convert":"2015-11-30,2015-12-01","city":"Paris ","country":"France","pres_sos":"Obama","position":"President","new_region":"Western Europe","remarks":"Attended the UN Climate Change Conference.","distance":6173365.60870437}},{"type":"Feature","geometry":{"type":"Point","coordinates":[101.686855,3.139003]},"properties":{"pres_id":70,"cartodb_id":2829,"city_id":88,"year":2015,"confidence":false,"notes":"","date_convert":"2015-11-20,2015-11-22","city":"Kuala Lumpur","country":"Malaysia","pres_sos":"Obama","position":"President","new_region":"East Asia","remarks":"Attended ASEAN Summit Meeting.","distance":15339154.7233621}},{"type":"Feature","geometry":{"type":"Point","coordinates":[120.984219,14.599512]},"properties":{"pres_id":70,"cartodb_id":2828,"city_id":55,"year":2015,"confidence":false,"notes":"","date_convert":"2015-11-17,2015-11-20","city":"Manila ","country":"Philippines","pres_sos":"Obama","position":"President","new_region":"East Asia","remarks":"Attended the Trans-Pacific Partnership, Pacific Alliance, and APEC Summit Meetings.","distance":13774524.0168199}},{"type":"Feature","geometry":{"type":"Point","coordinates":[2.352222,48.856614]},"properties":{"pres_id":69,"cartodb_id":3086,"city_id":6,"year":2015,"confidence":false,"notes":"","date_convert":"2015-11-16,2015-11-17","city":"Paris ","country":"France","pres_sos":"John Forbes Kerry","position":"SOS","new_region":"Western Europe","remarks":"Met with President Francois Hollande and Foreign Minister Laurent Fabius.","distance":6173365.60870437}},{"type":"Feature","geometry":{"type":"Point","coordinates":[32.859742,39.933363]},"properties":{"pres_id":69,"cartodb_id":3085,"city_id":67,"year":2015,"confidence":false,"notes":"","date_convert":"2015-11-15,2015-11-16","city":"Ankara","country":"Turkey","pres_sos":"John Forbes Kerry","position":"SOS","new_region":"Middle East","remarks":"Attended the G-20 Leadership Summit.","distance":8732264.48658026}},{"type":"Feature","geometry":{"type":"Point","coordinates":[32.859742,39.933363]},"properties":{"pres_id":70,"cartodb_id":2827,"city_id":67,"year":2015,"confidence":false,"notes":"","date_convert":"2015-11-15,2015-11-16","city":"Ankara","country":"Turkey","pres_sos":"Obama","position":"President","new_region":"Middle East","remarks":"Attended the G-20 Economic Summit.","distance":8732264.48658026}},{"type":"Feature","geometry":{"type":"Point","coordinates":[16.373819,48.208174]},"properties":{"pres_id":69,"cartodb_id":3084,"city_id":107,"year":2015,"confidence":false,"notes":"","date_convert":"2015-11-13,2015-11-14","city":"Vienna","country":"Austria","pres_sos":"John Forbes Kerry","position":"SOS","new_region":"Western Europe","remarks":"Met with the Foreign Ministers of Saudi Arabia, Turkey, Russia, and Iran, and with UN Special Envoy for Syria Steffan de Mistura. Attended a meeting on Syria.","distance":7131414.35150101}},{"type":"Feature","geometry":{"type":"Point","coordinates":[-0.127758,51.507351]},"properties":{"pres_id":69,"cartodb_id":3082,"city_id":10,"year":2015,"confidence":false,"notes":"","date_convert":"2015-11-03,2015-11-04","city":"London ","country":"United Kingdom","pres_sos":"John Forbes Kerry","position":"SOS","new_region":"Western Europe","remarks":"Met with Foreign Secretary Philip Hammond.","distance":5905935.18935877}},{"type":"Feature","geometry":{"type":"Point","coordinates":[-1.47266,52.506628]},"properties":{"pres_id":69,"cartodb_id":3077,"city_id":108,"year":2015,"confidence":false,"notes":"","date_convert":"2015-10-31,2015-11-01","city":"Bermuda","country":"United Kingdom","pres_sos":"John Forbes Kerry","position":"SOS","new_region":"Western Europe","remarks":"Attended the dedication of a new Embassy compound, Met with President Almazbek Atambaev and Foreign Minister Erlan Abdyldaev. Addressed the American University of Central Asia.","distance":5784418.95998389}},{"type":"Feature","geometry":{"type":"Point","coordinates":[16.373819,48.208174]},"properties":{"pres_id":69,"cartodb_id":3076,"city_id":107,"year":2015,"confidence":false,"notes":"","date_convert":"2015-10-29,2015-10-31","city":"Vienna","country":"Austria","pres_sos":"John Forbes Kerry","position":"SOS","new_region":"Western Europe","remarks":"Met with Austrian Foreign Minister Sebastian Kurz, UN Special Envoy for Syria Steffan de Mistura, and the Foreign Ministers of Iran, Russia, Saudi Arabia, and Turkey. Attended a meeting on Syria.","distance":7131414.35150101}},{"type":"Feature","geometry":{"type":"Point","coordinates":[-3.70379,40.416775]},"properties":{"pres_id":69,"cartodb_id":3072,"city_id":36,"year":2015,"confidence":false,"notes":"","date_convert":"2015-10-18,2015-10-19","city":"Madrid","country":"Spain","pres_sos":"John Forbes Kerry","position":"SOS","new_region":"Western Europe","remarks":"Met with King Felipe VI, President Mariano Rajoy,and Foreign Minister Jose Manuel Garcia-Margallo.","distance":6097632.31893352}},{"type":"Feature","geometry":{"type":"Point","coordinates":[-99.133208,19.432608]},"properties":{"pres_id":69,"cartodb_id":3070,"city_id":61,"year":2015,"confidence":false,"notes":"","date_convert":"2015-10-16,2015-10-17","city":"Mexico, D.F.","country":"Mexico","pres_sos":"John Forbes Kerry","position":"SOS","new_region":"Latin America","remarks":"Commemorated World Food Day, visited the USA Pavilion at Malan EXPO 2015, and met with Foreign Minister Paolo Gentiloni.","distance":3023376.22099694}},{"type":"Feature","geometry":{"type":"Point","coordinates":[-0.127758,51.507351]},"properties":{"pres_id":69,"cartodb_id":3066,"city_id":10,"year":2015,"confidence":false,"notes":"","date_convert":"2015-09-18,2015-09-19","city":"London ","country":"United Kingdom","pres_sos":"John Forbes Kerry","position":"SOS","new_region":"Western Europe","remarks":"Met with Foreign Secretary Philip Hammond and UAE Foreign Minister Abdullah bin Zayed.","distance":5905935.18935877}},{"type":"Feature","geometry":{"type":"Point","coordinates":[8.117883,49.32497]},"properties":{"pres_id":69,"cartodb_id":3064,"city_id":35,"year":2015,"confidence":false,"notes":"","date_convert":"2015-08-06,2015-08-08","city":"Hambach Castle","country":"Germany","pres_sos":"John Forbes Kerry","position":"SOS","new_region":"Western Europe","remarks":"Met with Deputy Prime Minister/Foreign Minister Pham Binh Minh and commemorated the 20th anniversary of the establishment of diplomatic relations.","distance":6538055.06911885}},{"type":"Feature","geometry":{"type":"Point","coordinates":[101.686855,3.139003]},"properties":{"pres_id":69,"cartodb_id":3063,"city_id":88,"year":2015,"confidence":false,"notes":"","date_convert":"2015-08-04,2015-08-06","city":"Kuala Lumpur","country":"Malaysia","pres_sos":"John Forbes Kerry","position":"SOS","new_region":"East Asia","remarks":"Attended the ASEAN Regional Forum.","distance":15339154.7233621}},{"type":"Feature","geometry":{"type":"Point","coordinates":[31.235712,30.04442]},"properties":{"pres_id":69,"cartodb_id":3060,"city_id":50,"year":2015,"confidence":false,"notes":"","date_convert":"2015-08-02,2015-08-03","city":"Cairo","country":"Egypt","pres_sos":"John Forbes Kerry","position":"SOS","new_region":"Middle East","remarks":"Co-chaired U.S.-Egypt Strategic Dialogue.","distance":9357491.22553302}},{"type":"Feature","geometry":{"type":"Point","coordinates":[38.757761,8.980603]},"properties":{"pres_id":70,"cartodb_id":2825,"city_id":137,"year":2015,"confidence":false,"notes":"","date_convert":"2015-07-26,2015-07-28","city":"Addis Ababa","country":"Ethiopia","pres_sos":"Obama","position":"President","new_region":"Africa","remarks":"Attended a meeting on South Sudan and Counterterrorism Issues and met with Prime Minister Hailemariam Desalegn (State dinner). Addressed the African Union.","distance":11537897.2292768}},{"type":"Feature","geometry":{"type":"Point","coordinates":[36.821946,-1.292066]},"properties":{"pres_id":70,"cartodb_id":2824,"city_id":111,"year":2015,"confidence":false,"notes":"","date_convert":"2015-07-24,2015-07-26","city":"Nairobi","country":"Kenya","pres_sos":"Obama","position":"President","new_region":"Africa","remarks":"Attended Global Entrepreneurship Summit and met with President Uhuru Kenyatta. Attended a State dinner.","distance":12152391.6511335}},{"type":"Feature","geometry":{"type":"Point","coordinates":[16.373819,48.208174]},"properties":{"pres_id":69,"cartodb_id":3059,"city_id":107,"year":2015,"confidence":false,"notes":"","date_convert":"2015-06-26,2015-07-14","city":"Vienna","country":"Austria","pres_sos":"John Forbes Kerry","position":"SOS","new_region":"Western Europe","remarks":"Met with Iranian Foreign Minister Mohammad Javad Zarif and the Foreign Ministers of the P5+ 1. Negotiated Joint Comprehensive Plan of Action concerning Irans nuclear energy program.","distance":7131414.35150101}},{"type":"Feature","geometry":{"type":"Point","coordinates":[19.86479,50.046681]},"properties":{"pres_id":70,"cartodb_id":2821,"city_id":214,"year":2015,"confidence":false,"notes":"","date_convert":"2015-06-07,2015-06-08","city":"Krakow","country":"Poland","pres_sos":"Obama","position":"President","new_region":"Eastern Europe and Central Asia","remarks":"Attended the G-7 Summit Meeting.","distance":7244006.24026799}},{"type":"Feature","geometry":{"type":"Point","coordinates":[11.581981,48.135125]},"properties":{"pres_id":70,"cartodb_id":2820,"city_id":138,"year":2015,"confidence":false,"notes":"","date_convert":"2015-06-07,2015-06-08","city":"Munich ","country":"Germany","pres_sos":"Obama","position":"President","new_region":"Western Europe","remarks":"Attended the G-7 Summit Meeting.","distance":6824406.87912478}},{"type":"Feature","geometry":{"type":"Point","coordinates":[68.641496,38.56124]},"properties":{"pres_id":70,"cartodb_id":2822,"city_id":280,"year":2015,"confidence":false,"notes":"","date_convert":"2015-06-07,2015-06-08","city":"Dushanbe","country":"Tajikistan","pres_sos":"Obama","position":"President","new_region":"Eastern Europe and Central Asia","remarks":"Attended the G-7 Summit Meeting.","distance":10721711.7847217}},{"type":"Feature","geometry":{"type":"Point","coordinates":[6.143158,46.204391]},"properties":{"pres_id":69,"cartodb_id":3058,"city_id":39,"year":2015,"confidence":false,"notes":"","date_convert":"2015-05-29,2015-05-30","city":"Geneva","country":"Switzerland","pres_sos":"John Forbes Kerry","position":"SOS","new_region":"Western Europe","remarks":"Met with Iranian Foreign Minister Mohammad Javad Zarif.","distance":6552418.20731486}},{"type":"Feature","geometry":{"type":"Point","coordinates":[126.977969,37.566535]},"properties":{"pres_id":69,"cartodb_id":3056,"city_id":22,"year":2015,"confidence":false,"notes":"","date_convert":"2015-05-17,2015-05-18","city":"Seoul","country":"South Korea","pres_sos":"John Forbes Kerry","position":"SOS","new_region":"East Asia","remarks":"Met with Foreign Minister Yun Byung-Se and President Park Geun-Hye.","distance":11161346.1924669}},{"type":"Feature","geometry":{"type":"Point","coordinates":[116.407395,39.904211]},"properties":{"pres_id":69,"cartodb_id":3055,"city_id":24,"year":2015,"confidence":false,"notes":"","date_convert":"2015-05-16,2015-05-17","city":"Beijing","country":"China","pres_sos":"John Forbes Kerry","position":"SOS","new_region":"East Asia","remarks":"Met with Foreign Minister Wang Yi, Premier Li Keqiang, State Counselor Yang Jiechi, and President Xi Jingping.","distance":11144617.2862615}},{"type":"Feature","geometry":{"type":"Point","coordinates":[32.859742,39.933363]},"properties":{"pres_id":69,"cartodb_id":3054,"city_id":67,"year":2015,"confidence":false,"notes":"","date_convert":"2015-05-12,2015-05-13","city":"Ankara","country":"Turkey","pres_sos":"John Forbes Kerry","position":"SOS","new_region":"Middle East","remarks":"Attended a NATO Foreign Ministers Meeting.","distance":8732264.48658026}},{"type":"Feature","geometry":{"type":"Point","coordinates":[46.675296,24.713552]},"properties":{"pres_id":69,"cartodb_id":3051,"city_id":53,"year":2015,"confidence":false,"notes":"","date_convert":"2015-05-06,2015-05-07","city":"Riyadh","country":"Saudi Arabia","pres_sos":"John Forbes Kerry","position":"SOS","new_region":"Middle East","remarks":"Met with King Salman, Crown Prince Mohammed bin Nayef, Foreign Minister Adel al-Jubeir, and Yemeni President Abd Rabbuh Mansur Hadi.","distance":10844923.8409589}},{"type":"Feature","geometry":{"type":"Point","coordinates":[-99.133208,19.432608]},"properties":{"pres_id":69,"cartodb_id":3049,"city_id":61,"year":2015,"confidence":false,"notes":"","date_convert":"2015-05-05,2015-05-06","city":"Mexico, D.F.","country":"Mexico","pres_sos":"John Forbes Kerry","position":"SOS","new_region":"Latin America","remarks":"Met with President Hassan Sheikh Mahmoud, Prime Minister Omar Abdirashid Ali Sharmarke and regional leaders. Announced plans to re-establish a U.S. Embassy..","distance":3023376.22099694}},{"type":"Feature","geometry":{"type":"Point","coordinates":[36.821946,-1.292066]},"properties":{"pres_id":69,"cartodb_id":3048,"city_id":111,"year":2015,"confidence":false,"notes":"","date_convert":"2015-05-03,2015-05-05","city":"Nairobi","country":"Kenya","pres_sos":"John Forbes Kerry","position":"SOS","new_region":"Africa","remarks":"Met with President Uhuru Kenyatta and Chief Justice Willy Mutunga. Visited the Dadaab refugee camp.","distance":12152391.6511335}},{"type":"Feature","geometry":{"type":"Point","coordinates":[-106.424548,31.690364]},"properties":{"pres_id":69,"cartodb_id":3047,"city_id":2,"year":2015,"confidence":false,"notes":"","date_convert":"2015-05-02,2015-05-03","city":"Ciudad Juarez","country":"Mexico","pres_sos":"John Forbes Kerry","position":"SOS","new_region":"Latin America","remarks":"Met with President Maithripala Sirisena, Prime Minister Ranil Wikremesinghe, and Foreign Minister Mangala Samaraweera.","distance":2761122.24682703}},{"type":"Feature","geometry":{"type":"Point","coordinates":[-0.127758,51.507351]},"properties":{"pres_id":69,"cartodb_id":3045,"city_id":10,"year":2015,"confidence":false,"notes":"","date_convert":"2015-04-14,2015-04-15","city":"London ","country":"United Kingdom","pres_sos":"John Forbes Kerry","position":"SOS","new_region":"Western Europe","remarks":"Attended the G-7 Foreign Ministers Meeting.","distance":5905935.18935877}},{"type":"Feature","geometry":{"type":"Point","coordinates":[-79.51987,8.982379]},"properties":{"pres_id":70,"cartodb_id":2819,"city_id":134,"year":2015,"confidence":false,"notes":"","date_convert":"2015-04-09,2015-04-11","city":"Panama City","country":"Panama","pres_sos":"Obama","position":"President","new_region":"Latin America","remarks":"Attended a Summit of the Americas meeting.","distance":3334966.59435672}},{"type":"Feature","geometry":{"type":"Point","coordinates":[-79.51987,8.982379]},"properties":{"pres_id":69,"cartodb_id":3044,"city_id":134,"year":2015,"confidence":false,"notes":"","date_convert":"2015-04-09,2015-04-10","city":"Panama City","country":"Panama","pres_sos":"John Forbes Kerry","position":"SOS","new_region":"Latin America","remarks":"Attended the Seventh Summit of the Americas.","distance":3334966.59435672}},{"type":"Feature","geometry":{"type":"Point","coordinates":[-76.809904,18.017874]},"properties":{"pres_id":70,"cartodb_id":2818,"city_id":4,"year":2015,"confidence":false,"notes":"","date_convert":"2015-04-08,2015-04-09","city":"Kingston","country":"Jamaica","pres_sos":"Obama","position":"President","new_region":"Latin America","remarks":"Attended a CARICOM meeting.","distance":2322147.35270557}},{"type":"Feature","geometry":{"type":"Point","coordinates":[33.629043,34.911182]},"properties":{"pres_id":69,"cartodb_id":3043,"city_id":124,"year":2015,"confidence":false,"notes":"","date_convert":"2015-03-27,2015-04-02","city":"Larnaca","country":"Cyprus","pres_sos":"John Forbes Kerry","position":"SOS","new_region":"Middle East","remarks":"Attended the P5 + 1 negotiations with Iran.","distance":9158191.23347043}},{"type":"Feature","geometry":{"type":"Point","coordinates":[33.629043,34.911182]},"properties":{"pres_id":69,"cartodb_id":3041,"city_id":124,"year":2015,"confidence":false,"notes":"","date_convert":"2015-03-15,2015-03-21","city":"Larnaca","country":"Cyprus","pres_sos":"John Forbes Kerry","position":"SOS","new_region":"Middle East","remarks":"Attended the P5 + 1 negotiations with Iran.","distance":9158191.23347043}},{"type":"Feature","geometry":{"type":"Point","coordinates":[-8.873068,52.712471]},"properties":{"pres_id":69,"cartodb_id":3040,"city_id":27,"year":2015,"confidence":false,"notes":"","date_convert":"2015-03-13,2015-03-15","city":"Shannon","country":"Ireland","pres_sos":"John Forbes Kerry","position":"SOS","new_region":"Western Europe","remarks":"Attended the Egypt Economic Development Conference.","distance":5294885.96462098}},{"type":"Feature","geometry":{"type":"Point","coordinates":[46.675296,24.713552]},"properties":{"pres_id":69,"cartodb_id":3037,"city_id":53,"year":2015,"confidence":false,"notes":"","date_convert":"2015-03-04,2015-03-06","city":"Riyadh","country":"Saudi Arabia","pres_sos":"John Forbes Kerry","position":"SOS","new_region":"Middle East","remarks":"Met with King Salman and Foreign Minister Saud al-Faisal and attended a meeting of Gulf Cooperation Council Foreign Ministers.","distance":10844923.8409589}},{"type":"Feature","geometry":{"type":"Point","coordinates":[6.91068,46.431221]},"properties":{"pres_id":69,"cartodb_id":3036,"city_id":275,"year":2015,"confidence":false,"notes":"","date_convert":"2015-03-02,2015-03-04","city":"Montreux","country":"Switzerland","pres_sos":"John Forbes Kerry","position":"SOS","new_region":"Western Europe","remarks":"Attended the 28th Session of the UN Human Rights Commission and met with Russian Foreign Minister Sergei Lavrov. Met with Iranian Foreign Minister Mohammed Javad Zarif in Montreux.","distance":6594619.02323093}},{"type":"Feature","geometry":{"type":"Point","coordinates":[6.143158,46.204391]},"properties":{"pres_id":69,"cartodb_id":3035,"city_id":39,"year":2015,"confidence":false,"notes":"","date_convert":"2015-03-02,2015-03-04","city":"Geneva","country":"Switzerland","pres_sos":"John Forbes Kerry","position":"SOS","new_region":"Western Europe","remarks":"Attended the 28th Session of the UN Human Rights Commission and met with Russian Foreign Minister Sergei Lavrov. Met with Iranian Foreign Minister Mohammed Javad Zarif in Montreux.","distance":6552418.20731486}},{"type":"Feature","geometry":{"type":"Point","coordinates":[6.143158,46.204391]},"properties":{"pres_id":69,"cartodb_id":3034,"city_id":39,"year":2015,"confidence":false,"notes":"","date_convert":"2015-02-23,2015-02-24","city":"Geneva","country":"Switzerland","pres_sos":"John Forbes Kerry","position":"SOS","new_region":"Western Europe","remarks":"Met with Iranian Foreign Minister Mohammed Javad Zarif.","distance":6552418.20731486}},{"type":"Feature","geometry":{"type":"Point","coordinates":[-0.127758,51.507351]},"properties":{"pres_id":69,"cartodb_id":3033,"city_id":10,"year":2015,"confidence":false,"notes":"","date_convert":"2015-02-21,2015-02-22","city":"London ","country":"United Kingdom","pres_sos":"John Forbes Kerry","position":"SOS","new_region":"Western Europe","remarks":"Met with Foreign Secretary Philip Hammond.","distance":5905935.18935877}},{"type":"Feature","geometry":{"type":"Point","coordinates":[11.581981,48.135125]},"properties":{"pres_id":69,"cartodb_id":3032,"city_id":138,"year":2015,"confidence":false,"notes":"","date_convert":"2015-02-06,2015-02-08","city":"Munich ","country":"Germany","pres_sos":"John Forbes Kerry","position":"SOS","new_region":"Western Europe","remarks":"Attended the 51st Munich Security Conference.","distance":6824406.87912478}},{"type":"Feature","geometry":{"type":"Point","coordinates":[101.686855,3.139003]},"properties":{"pres_id":69,"cartodb_id":3031,"city_id":88,"year":2015,"confidence":false,"notes":"","date_convert":"2015-02-05,2015-02-06","city":"Kuala Lumpur","country":"Malaysia","pres_sos":"John Forbes Kerry","position":"SOS","new_region":"East Asia","remarks":"Met with President Petro Poroshenko and Prime Minister Arseniy Yatsenyuk.","distance":15339154.7233621}},{"type":"Feature","geometry":{"type":"Point","coordinates":[77.209021,28.613939]},"properties":{"pres_id":70,"cartodb_id":2815,"city_id":78,"year":2015,"confidence":false,"notes":"","date_convert":"2015-01-24,2015-01-27","city":"New Delhi","country":"India","pres_sos":"Obama","position":"President","new_region":"South Asia","remarks":"Met with President Pranab Mukherjee and Prime Minister Narendra Modi.","distance":12050633.5178933}},{"type":"Feature","geometry":{"type":"Point","coordinates":[3.379206,6.524379]},"properties":{"pres_id":69,"cartodb_id":3028,"city_id":112,"year":2015,"confidence":false,"notes":"","date_convert":"2015-01-24,2015-01-25","city":"Lagos","country":"Nigeria","pres_sos":"John Forbes Kerry","position":"SOS","new_region":"Africa","remarks":"Met with President Goodluck Jonathan and presidential candidate Muhammedu Buhari.","distance":8734340.85428889}},{"type":"Feature","geometry":{"type":"Point","coordinates":[39.208328,-6.792354]},"properties":{"pres_id":69,"cartodb_id":3027,"city_id":147,"year":2015,"confidence":false,"notes":"","date_convert":"2015-01-22,2015-01-24","city":"Dar es Salaam","country":"Tanzania","pres_sos":"John Forbes Kerry","position":"SOS","new_region":"Africa","remarks":"Attended the World Economic Forum.","distance":12751016.0740763}},{"type":"Feature","geometry":{"type":"Point","coordinates":[103.819836,1.352083]},"properties":{"pres_id":69,"cartodb_id":3024,"city_id":89,"year":2015,"confidence":false,"notes":"","date_convert":"2015-01-14,2015-01-15","city":"Singapore","country":"Singapore","pres_sos":"John Forbes Kerry","position":"SOS","new_region":"East Asia","remarks":"Met with President Rosen Plevneliev, Prime Minister Boyko Borissov, Foreign Minister Daniel Mitov, and British Foreign Secretary Phillp Hammond.","distance":15538253.0699919}},{"type":"Feature","geometry":{"type":"Point","coordinates":[73.093146,33.729388]},"properties":{"pres_id":69,"cartodb_id":3022,"city_id":79,"year":2015,"confidence":false,"notes":"","date_convert":"2015-01-12,2015-01-14","city":"Islamabad","country":"Pakistan","pres_sos":"John Forbes Kerry","position":"SOS","new_region":"South Asia","remarks":"Attended the Second U.S.-Pakistan Strategic Dialogue Ministerial meeting.","distance":11376644.2400773}},{"type":"Feature","geometry":{"type":"Point","coordinates":[78.008075,27.17667]},"properties":{"pres_id":69,"cartodb_id":3021,"city_id":77,"year":2015,"confidence":false,"notes":"","date_convert":"2015-01-11,2015-01-12","city":"Agra","country":"India","pres_sos":"John Forbes Kerry","position":"SOS","new_region":"South Asia","remarks":"Attended the Vibrant Gujerat Global Investors Summit.","distance":12227849.161562}},{"type":"Feature","geometry":{"type":"Point","coordinates":[12.496365,41.902783]},"properties":{"pres_id":69,"cartodb_id":3017,"city_id":8,"year":2014,"confidence":false,"notes":"","date_convert":"2014-12-14,2014-12-15","city":"Rome","country":"Italy","pres_sos":"John Forbes Kerry","position":"SOS","new_region":"Western Europe","remarks":"Met with Russian Foreign Minister Sergei Lavrov and Israeli Prime Minister Benjamin Netanyahu.","distance":7225571.0860885}},{"type":"Feature","geometry":{"type":"Point","coordinates":[-0.127758,51.507351]},"properties":{"pres_id":69,"cartodb_id":3014,"city_id":10,"year":2014,"confidence":false,"notes":"","date_convert":"2014-12-04,2014-12-05","city":"London ","country":"United Kingdom","pres_sos":"John Forbes Kerry","position":"SOS","new_region":"Western Europe","remarks":"Attended the Conference on Afghanistan.","distance":5905935.18935877}},{"type":"Feature","geometry":{"type":"Point","coordinates":[100.501765,13.756331]},"properties":{"pres_id":69,"cartodb_id":3013,"city_id":76,"year":2014,"confidence":false,"notes":"","date_convert":"2014-12-03,2014-12-04","city":"Bangkok","country":"Thailand","pres_sos":"John Forbes Kerry","position":"SOS","new_region":"East Asia","remarks":"Attended an OSCE Ministerial Meeting.","distance":14155005.7767391}},{"type":"Feature","geometry":{"type":"Point","coordinates":[4.35171,50.85034]},"properties":{"pres_id":69,"cartodb_id":3012,"city_id":40,"year":2014,"confidence":false,"notes":"","date_convert":"2014-12-01,2014-12-03","city":"Brussels","country":"Belgium","pres_sos":"John Forbes Kerry","position":"SOS","new_region":"Western Europe","remarks":"Formally inaugurated the U.S. Embassy. Met with Foreign Minister Bruno Eduardo Rodrigues Parilla.","distance":6224186.6208891}},{"type":"Feature","geometry":{"type":"Point","coordinates":[16.373819,48.208174]},"properties":{"pres_id":69,"cartodb_id":3011,"city_id":107,"year":2014,"confidence":false,"notes":"","date_convert":"2014-11-20,2014-11-24","city":"Vienna","country":"Austria","pres_sos":"John Forbes Kerry","position":"SOS","new_region":"Western Europe","remarks":"Attended meetings with the P5+1 representatives, EU High Representative Ashton, and Iranian Foreign Minister Zarif.","distance":7131414.35150101}},{"type":"Feature","geometry":{"type":"Point","coordinates":[-0.127758,51.507351]},"properties":{"pres_id":69,"cartodb_id":3010,"city_id":10,"year":2014,"confidence":false,"notes":"","date_convert":"2014-11-18,2014-11-20","city":"London ","country":"United Kingdom","pres_sos":"John Forbes Kerry","position":"SOS","new_region":"Western Europe","remarks":"Attended EU/P5+1 negotiations with Iran.","distance":5905935.18935877}},{"type":"Feature","geometry":{"type":"Point","coordinates":[153.025124,-27.469771]},"properties":{"pres_id":70,"cartodb_id":2813,"city_id":139,"year":2014,"confidence":false,"notes":"","date_convert":"2014-11-15,2014-11-16","city":"Brisbane","country":"Australia","pres_sos":"Obama","position":"President","new_region":"Oceania","remarks":"Attended a G-20 Summit Meeting.","distance":15238362.6656375}},{"type":"Feature","geometry":{"type":"Point","coordinates":[96.195132,16.866069]},"properties":{"pres_id":70,"cartodb_id":2812,"city_id":153,"year":2014,"confidence":false,"notes":"","date_convert":"2014-11-12,2014-11-14","city":"Rangoon","country":"Burma","pres_sos":"Obama","position":"President","new_region":"East Asia","remarks":"Attended a United States-Association of Southeast Asian Naations Summit Meeting.","distance":13775746.1131148}},{"type":"Feature","geometry":{"type":"Point","coordinates":[96.07851,19.763306]},"properties":{"pres_id":70,"cartodb_id":2811,"city_id":140,"year":2014,"confidence":false,"notes":"","date_convert":"2014-11-12,2014-11-14","city":"Nay Pyi Taw","country":"Burma","pres_sos":"Obama","position":"President","new_region":"East Asia","remarks":"Attended a United States-Association of Southeast Asian Naations Summit Meeting.","distance":13454136.7669547}},{"type":"Feature","geometry":{"type":"Point","coordinates":[35.928372,31.945367]},"properties":{"pres_id":69,"cartodb_id":3009,"city_id":52,"year":2014,"confidence":false,"notes":"","date_convert":"2014-11-12,2014-11-13","city":"Amman ","country":"Jordan","pres_sos":"John Forbes Kerry","position":"SOS","new_region":"Middle East","remarks":"Met with King Abdullah II, Foreign Minister Nasser Judeh, and Palestinian Authority President Mahmoud Abbas. Attended a bilateral meeting of King Abdullah II and Israeli Prime Minister Benjamin Netanyahu.","distance":9539874.68041736}},{"type":"Feature","geometry":{"type":"Point","coordinates":[116.407395,39.904211]},"properties":{"pres_id":69,"cartodb_id":3008,"city_id":24,"year":2014,"confidence":false,"notes":"","date_convert":"2014-11-11,2014-11-12","city":"Beijing","country":"China","pres_sos":"John Forbes Kerry","position":"SOS","new_region":"East Asia","remarks":"Accompanied President Obama.","distance":11144617.2862615}},{"type":"Feature","geometry":{"type":"Point","coordinates":[116.407395,39.904211]},"properties":{"pres_id":70,"cartodb_id":2810,"city_id":24,"year":2014,"confidence":false,"notes":"","date_convert":"2014-11-10,2014-11-12","city":"Beijing","country":"China","pres_sos":"Obama","position":"President","new_region":"East Asia","remarks":"Attended the Asia Pacific Economic Cooperation CEO Summit Meeting and the Trans Pacific Partnership Leaders Meeting.","distance":11144617.2862615}},{"type":"Feature","geometry":{"type":"Point","coordinates":[11.581981,48.135125]},"properties":{"pres_id":69,"cartodb_id":3007,"city_id":138,"year":2014,"confidence":false,"notes":"","date_convert":"2014-11-09,2014-11-11","city":"Munich ","country":"Germany","pres_sos":"John Forbes Kerry","position":"SOS","new_region":"Western Europe","remarks":"Attended a trilateral meeting with EU High Representative Lady Catherine Ashton and Iranian Foreign Minister Mohammad Javad Zarif.","distance":6824406.87912478}},{"type":"Feature","geometry":{"type":"Point","coordinates":[116.407395,39.904211]},"properties":{"pres_id":69,"cartodb_id":3006,"city_id":24,"year":2014,"confidence":false,"notes":"","date_convert":"2014-11-07,2014-11-08","city":"Beijing","country":"China","pres_sos":"John Forbes Kerry","position":"SOS","new_region":"East Asia","remarks":"Attended the APEC Ministerial Meeting.","distance":11144617.2862615}},{"type":"Feature","geometry":{"type":"Point","coordinates":[2.352222,48.856614]},"properties":{"pres_id":69,"cartodb_id":3005,"city_id":6,"year":2014,"confidence":false,"notes":"","date_convert":"2014-11-04,2014-11-06","city":"Paris ","country":"France","pres_sos":"John Forbes Kerry","position":"SOS","new_region":"Western Europe","remarks":"Met with Foreign Minister Laurent Fabius, Jordanian Foreign Minister Nasser Judeh and Quartet Representative Tony Blair.","distance":6173365.60870437}},{"type":"Feature","geometry":{"type":"Point","coordinates":[13.404954,52.520007]},"properties":{"pres_id":69,"cartodb_id":3003,"city_id":149,"year":2014,"confidence":false,"notes":"","date_convert":"2014-10-21,2014-10-22","city":"Berlin","country":"Germany","pres_sos":"John Forbes Kerry","position":"SOS","new_region":"Western Europe","remarks":"Met with Chancellor Angela Merkel and Foreign Minister Frank-Walter Steinmeier.","distance":6717976.71552502}},{"type":"Feature","geometry":{"type":"Point","coordinates":[106.822745,-6.174465]},"properties":{"pres_id":69,"cartodb_id":3002,"city_id":161,"year":2014,"confidence":false,"notes":"","date_convert":"2014-10-20,2014-10-21","city":"Jakarta","country":"Indonesia","pres_sos":"John Forbes Kerry","position":"SOS","new_region":"East Asia","remarks":"Attended the inauguration of Joko Widodo.","distance":16354374.2823662}},{"type":"Feature","geometry":{"type":"Point","coordinates":[2.352222,48.856614]},"properties":{"pres_id":69,"cartodb_id":3000,"city_id":6,"year":2014,"confidence":false,"notes":"","date_convert":"2014-10-13,2014-10-14","city":"Paris ","country":"France","pres_sos":"John Forbes Kerry","position":"SOS","new_region":"Western Europe","remarks":"Met with Foreign Minister Laurent Fabius, Russian Foreign Minister Sergei Lavrov, and Libyan Foreign Minister Mohammed al-Dairi.","distance":6173365.60870437}},{"type":"Feature","geometry":{"type":"Point","coordinates":[31.235712,30.04442]},"properties":{"pres_id":69,"cartodb_id":2999,"city_id":50,"year":2014,"confidence":false,"notes":"","date_convert":"2014-10-12,2014-10-13","city":"Cairo","country":"Egypt","pres_sos":"John Forbes Kerry","position":"SOS","new_region":"Middle East","remarks":"Attended the Gaza Donors Conference.","distance":9357491.22553302}},{"type":"Feature","geometry":{"type":"Point","coordinates":[2.352222,48.856614]},"properties":{"pres_id":69,"cartodb_id":2998,"city_id":6,"year":2014,"confidence":false,"notes":"","date_convert":"2014-09-14,2014-09-15","city":"Paris ","country":"France","pres_sos":"John Forbes Kerry","position":"SOS","new_region":"Western Europe","remarks":"Attended the International Conference on Peace and Security in Iraq.","distance":6173365.60870437}},{"type":"Feature","geometry":{"type":"Point","coordinates":[31.235712,30.04442]},"properties":{"pres_id":69,"cartodb_id":2997,"city_id":50,"year":2014,"confidence":false,"notes":"","date_convert":"2014-09-13,2014-09-14","city":"Cairo","country":"Egypt","pres_sos":"John Forbes Kerry","position":"SOS","new_region":"Middle East","remarks":"Met with President Abdel Fattah al-Sisi, Foreign Minister Sameh Shoukry, and Arab League Secretary-General Nabil al-Araby.","distance":9357491.22553302}},{"type":"Feature","geometry":{"type":"Point","coordinates":[32.859742,39.933363]},"properties":{"pres_id":69,"cartodb_id":2996,"city_id":67,"year":2014,"confidence":false,"notes":"","date_convert":"2014-09-12,2014-09-13","city":"Ankara","country":"Turkey","pres_sos":"John Forbes Kerry","position":"SOS","new_region":"Middle East","remarks":"Met with President Recep Tayyip Erdogan, Prime Minister Ahmed Davutoglu, and Foreign Minister Mevlut Cavusoglu.","distance":8732264.48658026}},{"type":"Feature","geometry":{"type":"Point","coordinates":[39.237551,21.285407]},"properties":{"pres_id":69,"cartodb_id":2995,"city_id":120,"year":2014,"confidence":false,"notes":"","date_convert":"2014-09-11,2014-09-12","city":"Jeddah","country":"Saudi Arabia","pres_sos":"John Forbes Kerry","position":"SOS","new_region":"Middle East","remarks":"Met with King Abdullah, attended a meeting of the Gulf Cooperation Council and Regional Partners, and met with representatives of the Organization of the Islamic Conference.","distance":10609802.5822191}},{"type":"Feature","geometry":{"type":"Point","coordinates":[35.928372,31.945367]},"properties":{"pres_id":69,"cartodb_id":2994,"city_id":52,"year":2014,"confidence":false,"notes":"","date_convert":"2014-09-10,2014-09-11","city":"Amman ","country":"Jordan","pres_sos":"John Forbes Kerry","position":"SOS","new_region":"Middle East","remarks":"Met with King Abdullah II.","distance":9539874.68041736}},{"type":"Feature","geometry":{"type":"Point","coordinates":[-2.997664,51.584151]},"properties":{"pres_id":69,"cartodb_id":2991,"city_id":141,"year":2014,"confidence":false,"notes":"","date_convert":"2014-09-04,2014-09-05","city":"Newport","country":"United Kingdom","pres_sos":"John Forbes Kerry","position":"SOS","new_region":"Western Europe","remarks":"Accompanied President Obama to the NATO Summit Meeting.","distance":5714178.59054905}},{"type":"Feature","geometry":{"type":"Point","coordinates":[-2.997664,51.584151]},"properties":{"pres_id":70,"cartodb_id":2808,"city_id":141,"year":2014,"confidence":false,"notes":"","date_convert":"2014-09-03,2014-09-05","city":"Newport","country":"United Kingdom","pres_sos":"Obama","position":"President","new_region":"Western Europe","remarks":"Attended a NATO Summit Meeting. Also visited Stonehenge.","distance":5714178.59054905}},{"type":"Feature","geometry":{"type":"Point","coordinates":[151.209295,-33.86882]},"properties":{"pres_id":69,"cartodb_id":2989,"city_id":118,"year":2014,"confidence":false,"notes":"","date_convert":"2014-08-11,2014-08-13","city":"Sydney","country":"Australia","pres_sos":"John Forbes Kerry","position":"SOS","new_region":"Oceania","remarks":"Attended the Australia-U.S. Ministerial Consultations.","distance":15700189.5310154}},{"type":"Feature","geometry":{"type":"Point","coordinates":[96.195132,16.866069]},"properties":{"pres_id":69,"cartodb_id":2988,"city_id":153,"year":2014,"confidence":false,"notes":"","date_convert":"2014-08-09,2014-08-10","city":"Rangoon","country":"Burma","pres_sos":"John Forbes Kerry","position":"SOS","new_region":"East Asia","remarks":"Attended the U.S.-ASEAN and Lower Mekong Initiatives, the ASEAN Regional Forum, and the East Asia Summit ministerial meetings.","distance":13775746.1131148}},{"type":"Feature","geometry":{"type":"Point","coordinates":[96.07851,19.763306]},"properties":{"pres_id":69,"cartodb_id":2987,"city_id":140,"year":2014,"confidence":false,"notes":"","date_convert":"2014-08-09,2014-08-10","city":"Nay Pyi Taw","country":"Burma","pres_sos":"John Forbes Kerry","position":"SOS","new_region":"East Asia","remarks":"Attended the U.S.-ASEAN and Lower Mekong Initiatives, the ASEAN Regional Forum, and the East Asia Summit ministerial meetings.","distance":13454136.7669547}},{"type":"Feature","geometry":{"type":"Point","coordinates":[69.207486,34.555349]},"properties":{"pres_id":69,"cartodb_id":2986,"city_id":155,"year":2014,"confidence":false,"notes":"","date_convert":"2014-08-07,2014-08-08","city":"Kabul","country":"Afghanistan","pres_sos":"John Forbes Kerry","position":"SOS","new_region":"South Asia","remarks":"Met with President Hamid Karzai and presidential candidates Abdullah Abdullah and Ashraf Ghani.","distance":11144117.6008592}},{"type":"Feature","geometry":{"type":"Point","coordinates":[77.209021,28.613939]},"properties":{"pres_id":69,"cartodb_id":2985,"city_id":78,"year":2014,"confidence":false,"notes":"","date_convert":"2014-07-29,2014-08-01","city":"New Delhi","country":"India","pres_sos":"John Forbes Kerry","position":"SOS","new_region":"South Asia","remarks":"Attended the 5th U.S.-India Strategic Dialogue.","distance":12050633.5178933}},{"type":"Feature","geometry":{"type":"Point","coordinates":[2.352222,48.856614]},"properties":{"pres_id":69,"cartodb_id":2984,"city_id":6,"year":2014,"confidence":false,"notes":"","date_convert":"2014-07-25,2014-07-26","city":"Paris ","country":"France","pres_sos":"John Forbes Kerry","position":"SOS","new_region":"Western Europe","remarks":"Met with the Foreign Ministers of France, the United Kingdom, Germany, Italy, Qatar, and Turkey.","distance":6173365.60870437}},{"type":"Feature","geometry":{"type":"Point","coordinates":[31.235712,30.04442]},"properties":{"pres_id":69,"cartodb_id":2983,"city_id":50,"year":2014,"confidence":false,"notes":"","date_convert":"2014-07-24,2014-07-25","city":"Cairo","country":"Egypt","pres_sos":"John Forbes Kerry","position":"SOS","new_region":"Middle East","remarks":"Discussed the Gaza crisis with UN Secretary-General Ban Ki-Moon, Arab League Secretary-General Nabil al-Araby, President Abdel Fattah al-Sisi, and Foreign Minister Sameh Shoukry.","distance":9357491.22553302}},{"type":"Feature","geometry":{"type":"Point","coordinates":[31.235712,30.04442]},"properties":{"pres_id":69,"cartodb_id":2980,"city_id":50,"year":2014,"confidence":false,"notes":"","date_convert":"2014-07-21,2014-07-23","city":"Cairo","country":"Egypt","pres_sos":"John Forbes Kerry","position":"SOS","new_region":"Middle East","remarks":"Discussed the Gaza crisis with UN Secretary-General Ban Ki-Moon, Arab League Secretary-General Nabil al-Araby, President Abdel Fattah al-Sisi, and Foreign Minister Sameh Shoukry.","distance":9357491.22553302}},{"type":"Feature","geometry":{"type":"Point","coordinates":[16.373819,48.208174]},"properties":{"pres_id":69,"cartodb_id":2979,"city_id":107,"year":2014,"confidence":false,"notes":"","date_convert":"2014-07-13,2014-07-15","city":"Vienna","country":"Austria","pres_sos":"John Forbes Kerry","position":"SOS","new_region":"Western Europe","remarks":"Met with Iranian Foreign Minister Javad Zarif and various P5+1 Foreign Ministers.","distance":7131414.35150101}},{"type":"Feature","geometry":{"type":"Point","coordinates":[69.207486,34.555349]},"properties":{"pres_id":69,"cartodb_id":2978,"city_id":155,"year":2014,"confidence":false,"notes":"","date_convert":"2014-07-11,2014-07-12","city":"Kabul","country":"Afghanistan","pres_sos":"John Forbes Kerry","position":"SOS","new_region":"South Asia","remarks":"Met with President Hamid Karzai, Afghan political leaders, and the head of the UN Assistance Mission.","distance":11144117.6008592}},{"type":"Feature","geometry":{"type":"Point","coordinates":[116.407395,39.904211]},"properties":{"pres_id":69,"cartodb_id":2977,"city_id":24,"year":2014,"confidence":false,"notes":"","date_convert":"2014-07-08,2014-07-10","city":"Beijing","country":"China","pres_sos":"John Forbes Kerry","position":"SOS","new_region":"East Asia","remarks":"Attended the Sixth Round of the U.S.-China Strategic and Economic Dialogue.","distance":11144617.2862615}},{"type":"Feature","geometry":{"type":"Point","coordinates":[2.352222,48.856614]},"properties":{"pres_id":69,"cartodb_id":2974,"city_id":6,"year":2014,"confidence":false,"notes":"","date_convert":"2014-06-26,2014-06-27","city":"Paris ","country":"France","pres_sos":"John Forbes Kerry","position":"SOS","new_region":"Western Europe","remarks":"Met with Foreign Minister Laurent Fabius and with the Foreign Ministers of Israel, Saudi Arabia, the United Arab Emirates, and Jordan.","distance":6173365.60870437}},{"type":"Feature","geometry":{"type":"Point","coordinates":[4.35171,50.85034]},"properties":{"pres_id":69,"cartodb_id":2973,"city_id":40,"year":2014,"confidence":false,"notes":"","date_convert":"2014-06-24,2014-06-26","city":"Brussels","country":"Belgium","pres_sos":"John Forbes Kerry","position":"SOS","new_region":"Western Europe","remarks":"Attended a NATO Foreign Ministers Meeting.","distance":6224186.6208891}},{"type":"Feature","geometry":{"type":"Point","coordinates":[23.727539,37.98381]},"properties":{"pres_id":69,"cartodb_id":2971,"city_id":68,"year":2014,"confidence":false,"notes":"","date_convert":"2014-06-23,2014-06-24","city":"Athens","country":"Greece","pres_sos":"John Forbes Kerry","position":"SOS","new_region":"Western Europe","remarks":"Met with President Nouri al-Maliki and Iraqi political leaders, and with Kurdistan regional leaders in Erbil.","distance":8261389.07774098}},{"type":"Feature","geometry":{"type":"Point","coordinates":[44.00887,36.206293]},"properties":{"pres_id":69,"cartodb_id":2972,"city_id":274,"year":2014,"confidence":false,"notes":"","date_convert":"2014-06-23,2014-06-24","city":"Erbil ","country":"Iraq","pres_sos":"John Forbes Kerry","position":"SOS","new_region":"Middle East","remarks":"Met with President Nouri al-Maliki and Iraqi political leaders, and with Kurdistan regional leaders in Erbil.","distance":9714602.16955579}},{"type":"Feature","geometry":{"type":"Point","coordinates":[-0.876758,49.371216]},"properties":{"pres_id":69,"cartodb_id":2966,"city_id":31,"year":2014,"confidence":false,"notes":"","date_convert":"2014-06-05,2014-06-07","city":"Normandy","country":"France","pres_sos":"John Forbes Kerry","position":"SOS","new_region":"Western Europe","remarks":"Accompanied President Obama. Took part in commemorations of the 70th anniversary of the Normandy invasion.","distance":5933314.93173356}},{"type":"Feature","geometry":{"type":"Point","coordinates":[2.352222,48.856614]},"properties":{"pres_id":69,"cartodb_id":2965,"city_id":6,"year":2014,"confidence":false,"notes":"","date_convert":"2014-06-05,2014-06-07","city":"Paris ","country":"France","pres_sos":"John Forbes Kerry","position":"SOS","new_region":"Western Europe","remarks":"Accompanied President Obama. Took part in commemorations of the 70th anniversary of the Normandy invasion.","distance":6173365.60870437}},{"type":"Feature","geometry":{"type":"Point","coordinates":[-0.876758,49.371216]},"properties":{"pres_id":70,"cartodb_id":2806,"city_id":31,"year":2014,"confidence":false,"notes":"","date_convert":"2014-06-05,2014-06-06","city":"Normandy","country":"France","pres_sos":"Obama","position":"President","new_region":"Western Europe","remarks":"Met with President Francois Hollande. Attended ceremonies commemorating the 70th anniversary of the Normandy landings. Discussed the Ukrainian situation with Russian President Vladimir Putin.","distance":5933314.93173356}},{"type":"Feature","geometry":{"type":"Point","coordinates":[20.448922,44.786568]},"properties":{"pres_id":70,"cartodb_id":2805,"city_id":60,"year":2014,"confidence":false,"notes":"","date_convert":"2014-06-05,2014-06-06","city":"Belgrade","country":"Yugoslavia","pres_sos":"Obama","position":"President","new_region":"Eastern Europe and Central Asia","remarks":"Met with President Francois Hollande. Attended ceremonies commemorating the 70th anniversary of the Normandy landings. Discussed the Ukrainian situation with Russian President Vladimir Putin.","distance":7597780.13347184}},{"type":"Feature","geometry":{"type":"Point","coordinates":[-75.697193,45.42153]},"properties":{"pres_id":70,"cartodb_id":2804,"city_id":1,"year":2014,"confidence":false,"notes":"","date_convert":"2014-06-05,2014-06-06","city":"Ottawa","country":"Canada","pres_sos":"Obama","position":"President","new_region":"Canada","remarks":"Met with President Francois Hollande. Attended ceremonies commemorating the 70th anniversary of the Normandy landings. Discussed the Ukrainian situation with Russian President Vladimir Putin.","distance":735088.944328151}},{"type":"Feature","geometry":{"type":"Point","coordinates":[2.352222,48.856614]},"properties":{"pres_id":70,"cartodb_id":2803,"city_id":6,"year":2014,"confidence":false,"notes":"","date_convert":"2014-06-05,2014-06-06","city":"Paris ","country":"France","pres_sos":"Obama","position":"President","new_region":"Western Europe","remarks":"Met with President Francois Hollande. Attended ceremonies commemorating the 70th anniversary of the Normandy landings. Discussed the Ukrainian situation with Russian President Vladimir Putin.","distance":6173365.60870437}},{"type":"Feature","geometry":{"type":"Point","coordinates":[4.35171,50.85034]},"properties":{"pres_id":70,"cartodb_id":2802,"city_id":40,"year":2014,"confidence":false,"notes":"","date_convert":"2014-06-04,2014-06-05","city":"Brussels","country":"Belgium","pres_sos":"Obama","position":"President","new_region":"Western Europe","remarks":"Met with King Philippe and Prime Minister Elio Di Rupo. Attended meetings of the G-7 leaders.","distance":6224186.6208891}},{"type":"Feature","geometry":{"type":"Point","coordinates":[21.012229,52.229676]},"properties":{"pres_id":70,"cartodb_id":2801,"city_id":143,"year":2014,"confidence":false,"notes":"","date_convert":"2014-06-03,2014-06-04","city":"Warsaw","country":"Poland","pres_sos":"Obama","position":"President","new_region":"Eastern Europe and Central Asia","remarks":"Met with Prime Minister Bronislaw Komarowski. Attended a Solidarity Dinner and a Freedom Day commemoration.","distance":7185111.83832421}},{"type":"Feature","geometry":{"type":"Point","coordinates":[21.012229,52.229676]},"properties":{"pres_id":69,"cartodb_id":2963,"city_id":143,"year":2014,"confidence":false,"notes":"","date_convert":"2014-06-03,2014-06-04","city":"Warsaw","country":"Poland","pres_sos":"John Forbes Kerry","position":"SOS","new_region":"Eastern Europe and Central Asia","remarks":"Accompanied President Obama. Signed a Framework Agreement on Innovation. Met with Ukrainian President-elect Petro Poroshenko.","distance":7185111.83832421}},{"type":"Feature","geometry":{"type":"Point","coordinates":[-115.452262,32.624539]},"properties":{"pres_id":69,"cartodb_id":2962,"city_id":41,"year":2014,"confidence":false,"notes":"","date_convert":"2014-05-21,2014-05-22","city":"Mexicali","country":"Mexico","pres_sos":"John Forbes Kerry","position":"SOS","new_region":"Latin America","remarks":"Met with President Enrico Pena Nieto and Foreign Secretary Jose Antonio Meade. Attended a Joint Bilateral Forum on Higher Education, Innovation, and Research; a CleanTech Challenge Launch event, and a U.S.-Mexico CEO Dialogue dinner.","distance":3498795.32891188}},{"type":"Feature","geometry":{"type":"Point","coordinates":[-0.127758,51.507351]},"properties":{"pres_id":69,"cartodb_id":2961,"city_id":10,"year":2014,"confidence":false,"notes":"","date_convert":"2014-05-15,2014-05-16","city":"London ","country":"United Kingdom","pres_sos":"John Forbes Kerry","position":"SOS","new_region":"Western Europe","remarks":"Attended a meeting of the London 11 (Friends of the Syrian People) and the Syrian Opposition Coalition.","distance":5905935.18935877}},{"type":"Feature","geometry":{"type":"Point","coordinates":[-0.127758,51.507351]},"properties":{"pres_id":69,"cartodb_id":2960,"city_id":10,"year":2014,"confidence":false,"notes":"","date_convert":"2014-05-04,2014-05-05","city":"London ","country":"United Kingdom","pres_sos":"John Forbes Kerry","position":"SOS","new_region":"Western Europe","remarks":"Met with President Jose Eduardo dos Santos and Foreign Minister Georges Chikoli. Visited a GE facility.","distance":5905935.18935877}},{"type":"Feature","geometry":{"type":"Point","coordinates":[-76.809904,18.017874]},"properties":{"pres_id":69,"cartodb_id":2959,"city_id":4,"year":2014,"confidence":false,"notes":"","date_convert":"2014-05-03,2014-05-04","city":"Kingston","country":"Jamaica","pres_sos":"John Forbes Kerry","position":"SOS","new_region":"Latin America","remarks":"Met with Foreign Minister Raymond Tshibanda, participants in the Young Africa Leaders Initiative UN Special Representative Martin Kobler, and President Joseph Kabila.","distance":2322147.35270557}},{"type":"Feature","geometry":{"type":"Point","coordinates":[38.757761,8.980603]},"properties":{"pres_id":69,"cartodb_id":2957,"city_id":137,"year":2014,"confidence":false,"notes":"","date_convert":"2014-04-30,2014-05-03","city":"Addis Ababa","country":"Ethiopia","pres_sos":"John Forbes Kerry","position":"SOS","new_region":"Africa","remarks":"Co-convened the 4th Session of the U.S.-AU High Level Dialogue. Met with Somali President Hassan Sheikh Mohamud.","distance":11537897.2292768}},{"type":"Feature","geometry":{"type":"Point","coordinates":[120.984219,14.599512]},"properties":{"pres_id":70,"cartodb_id":2798,"city_id":55,"year":2014,"confidence":true,"notes":"","date_convert":"2014-04-28,2014-04-29","city":"Manila ","country":"Philippines","pres_sos":"Obama","position":"President","new_region":"East Asia","remarks":"Met with President Benigno S. Aquino 3rd. Attended a wreath-laying ceremony at the American Manila Cemetery.","distance":13774524.0168199}},{"type":"Feature","geometry":{"type":"Point","coordinates":[101.686855,3.139003]},"properties":{"pres_id":70,"cartodb_id":2797,"city_id":88,"year":2014,"confidence":false,"notes":"","date_convert":"2014-04-26,2014-04-28","city":"Kuala Lumpur","country":"Malaysia","pres_sos":"Obama","position":"President","new_region":"East Asia","remarks":"Met with Prime Minister Najib Razak, toured the National Mosque and the Malaysian Global Innovation and Creativity Center.","distance":15339154.7233621}},{"type":"Feature","geometry":{"type":"Point","coordinates":[139.731094,35.709038]},"properties":{"pres_id":70,"cartodb_id":2796,"city_id":21,"year":2014,"confidence":false,"notes":"","date_convert":"2014-04-22,2014-04-25","city":"Tokyo","country":"Japan","pres_sos":"Obama","position":"President","new_region":"East Asia","remarks":"Met with Prime Minister Shinzo Abe and Emperor Akihito. Toured the National Museum of Emerging Science and Innovation. Toured the Meiji Jingu Shrine.","distance":10895520.6663545}},{"type":"Feature","geometry":{"type":"Point","coordinates":[6.143158,46.204391]},"properties":{"pres_id":69,"cartodb_id":2956,"city_id":39,"year":2014,"confidence":false,"notes":"","date_convert":"2014-04-16,2014-04-17","city":"Geneva","country":"Switzerland","pres_sos":"John Forbes Kerry","position":"SOS","new_region":"Western Europe","remarks":"Discussed the Ukrainian crisis with representatives of Russia, Ukraine, and the European Union. Discussed the Syrian crisis with Joint Special Representative Lakhdar Brahimi.","distance":6552418.20731486}},{"type":"Feature","geometry":{"type":"Point","coordinates":[-6.849813,33.97159]},"properties":{"pres_id":69,"cartodb_id":2955,"city_id":83,"year":2014,"confidence":false,"notes":"","date_convert":"2014-04-03,2014-04-04","city":"Rabat","country":"Morocco","pres_sos":"John Forbes Kerry","position":"SOS","new_region":"Middle East","remarks":"Co-chaired the U.S.-Morocco Strategic Dialogue.","distance":6155871.46030671}},{"type":"Feature","geometry":{"type":"Point","coordinates":[4.35171,50.85034]},"properties":{"pres_id":69,"cartodb_id":2953,"city_id":40,"year":2014,"confidence":false,"notes":"","date_convert":"2014-04-01,2014-04-02","city":"Brussels","country":"Belgium","pres_sos":"John Forbes Kerry","position":"SOS","new_region":"Western Europe","remarks":"Attended the NATO Foreign Ministerial Meeting and meetings of the NATO-Ukraine and NATO-Georgia Commissions. Co-chaired the 5th U.S.-EU Energy Council Meeting.","distance":6224186.6208891}},{"type":"Feature","geometry":{"type":"Point","coordinates":[35.21371,31.768319]},"properties":{"pres_id":69,"cartodb_id":2951,"city_id":51,"year":2014,"confidence":false,"notes":"","date_convert":"2014-03-31,2014-04-01","city":"Jerusalem","country":"Israel","pres_sos":"John Forbes Kerry","position":"SOS","new_region":"Middle East","remarks":"Met with Prime Minister Benjamin Netanyahu.","distance":9504946.68422716}},{"type":"Feature","geometry":{"type":"Point","coordinates":[2.352222,48.856614]},"properties":{"pres_id":69,"cartodb_id":2950,"city_id":6,"year":2014,"confidence":false,"notes":"","date_convert":"2014-03-29,2014-03-30","city":"Paris ","country":"France","pres_sos":"John Forbes Kerry","position":"SOS","new_region":"Western Europe","remarks":"Met with Foreign Minister Laurent Fabius and Russian Foreign Minister Sergei Lavrov.","distance":6173365.60870437}},{"type":"Feature","geometry":{"type":"Point","coordinates":[46.675296,24.713552]},"properties":{"pres_id":70,"cartodb_id":2793,"city_id":53,"year":2014,"confidence":false,"notes":"","date_convert":"2014-03-28,2014-03-29","city":"Riyadh","country":"Saudi Arabia","pres_sos":"Obama","position":"President","new_region":"Middle East","remarks":"Met with King Abdullah bin Abdel Aziz al-Saud.","distance":10844923.8409589}},{"type":"Feature","geometry":{"type":"Point","coordinates":[46.675296,24.713552]},"properties":{"pres_id":69,"cartodb_id":2949,"city_id":53,"year":2014,"confidence":false,"notes":"","date_convert":"2014-03-28,2014-03-29","city":"Riyadh","country":"Saudi Arabia","pres_sos":"John Forbes Kerry","position":"SOS","new_region":"Middle East","remarks":"Accompanied President Obama.","distance":10844923.8409589}},{"type":"Feature","geometry":{"type":"Point","coordinates":[12.496365,41.902783]},"properties":{"pres_id":69,"cartodb_id":2948,"city_id":8,"year":2014,"confidence":false,"notes":"","date_convert":"2014-03-27,2014-03-28","city":"Rome","country":"Italy","pres_sos":"John Forbes Kerry","position":"SOS","new_region":"Western Europe","remarks":"Accompanied President Obama.","distance":7225571.0860885}},{"type":"Feature","geometry":{"type":"Point","coordinates":[12.496365,41.902783]},"properties":{"pres_id":70,"cartodb_id":2791,"city_id":8,"year":2014,"confidence":false,"notes":"","date_convert":"2014-03-26,2014-03-28","city":"Rome","country":"Italy","pres_sos":"Obama","position":"President","new_region":"Western Europe","remarks":"Met with President Giorgio Napolitano and Prime Minister Matteo Renzi. Toured the Colosseum.","distance":7225571.0860885}},{"type":"Feature","geometry":{"type":"Point","coordinates":[3.423167,50.886895]},"properties":{"pres_id":70,"cartodb_id":2789,"city_id":145,"year":2014,"confidence":false,"notes":"","date_convert":"2014-03-25,2014-03-26","city":"Waregem","country":"Belgium","pres_sos":"Obama","position":"President","new_region":"Western Europe","remarks":"Attended a wreath-laying ceremony at the Flanders Field American Cemetery. Attended a meeting of the Council of the European Union.","distance":6162058.65242853}},{"type":"Feature","geometry":{"type":"Point","coordinates":[4.35171,50.85034]},"properties":{"pres_id":70,"cartodb_id":2790,"city_id":40,"year":2014,"confidence":false,"notes":"","date_convert":"2014-03-25,2014-03-26","city":"Brussels","country":"Belgium","pres_sos":"Obama","position":"President","new_region":"Western Europe","remarks":"Attended a wreath-laying ceremony at the Flanders Field American Cemetery. Attended a meeting of the Council of the European Union.","distance":6224186.6208891}},{"type":"Feature","geometry":{"type":"Point","coordinates":[35.928372,31.945367]},"properties":{"pres_id":70,"cartodb_id":2788,"city_id":52,"year":2014,"confidence":true,"notes":"","date_convert":"2014-03-24,2014-03-25","city":"Amman ","country":"Jordan","pres_sos":"Obama","position":"President","new_region":"Middle East","remarks":"Attended the World Forum the Nuclear Security Summit, and a G-7 meeting on the Ukrainian crisis. Met with King Willem-Alexander and President Nursultan Nazarbayev of Kazakhstan.","distance":9539874.68041736}},{"type":"Feature","geometry":{"type":"Point","coordinates":[34.781768,32.0853]},"properties":{"pres_id":69,"cartodb_id":2944,"city_id":75,"year":2014,"confidence":false,"notes":"","date_convert":"2014-03-24,2014-03-25","city":"Tel Aviv","country":"Israel","pres_sos":"John Forbes Kerry","position":"SOS","new_region":"Middle East","remarks":"Accompanied President Obama to a G-7 Leaders Meeting on the Ukrainian crisis.","distance":9451123.04028403}},{"type":"Feature","geometry":{"type":"Point","coordinates":[4.3007,52.070498]},"properties":{"pres_id":70,"cartodb_id":2787,"city_id":71,"year":2014,"confidence":true,"notes":"","date_convert":"2014-03-24,2014-03-25","city":"The Hague","country":"Netherlands","pres_sos":"Obama","position":"President","new_region":"Western Europe","remarks":"Attended the World Forum the Nuclear Security Summit, and a G-7 meeting on the Ukrainian crisis. Met with King Willem-Alexander and President Nursultan Nazarbayev of Kazakhstan.","distance":6171471.9723063}},{"type":"Feature","geometry":{"type":"Point","coordinates":[12.496365,41.902783]},"properties":{"pres_id":69,"cartodb_id":2941,"city_id":8,"year":2014,"confidence":false,"notes":"","date_convert":"2014-03-05,2014-03-06","city":"Rome","country":"Italy","pres_sos":"John Forbes Kerry","position":"SOS","new_region":"Western Europe","remarks":"Met with Prime Minister Matteo Renzi and Foreign Minister Federica Mogherini. Attended a conference on International Support to Libya.","distance":7225571.0860885}},{"type":"Feature","geometry":{"type":"Point","coordinates":[2.352222,48.856614]},"properties":{"pres_id":69,"cartodb_id":2938,"city_id":6,"year":2014,"confidence":false,"notes":"","date_convert":"2014-02-19,2014-02-20","city":"Paris ","country":"France","pres_sos":"John Forbes Kerry","position":"SOS","new_region":"Western Europe","remarks":"Met with Foreign Minister Laurent Fabius, Palestinian Authority President Mahmoud Abbas, and Jordanian Foreign Minister Nasser Judeh.","distance":6173365.60870437}},{"type":"Feature","geometry":{"type":"Point","coordinates":[10.181532,36.806495]},"properties":{"pres_id":69,"cartodb_id":2937,"city_id":82,"year":2014,"confidence":false,"notes":"","date_convert":"2014-02-18,2014-02-19","city":"Tunis","country":"Tunisia","pres_sos":"John Forbes Kerry","position":"SOS","new_region":"Middle East","remarks":"Met with President Moncef Marzouki and Prime Minister Medhi Jomaa.","distance":7349758.57412766}},{"type":"Feature","geometry":{"type":"Point","coordinates":[-4.008256,5.359952]},"properties":{"pres_id":69,"cartodb_id":2936,"city_id":113,"year":2014,"confidence":false,"notes":"","date_convert":"2014-02-17,2014-02-18","city":"Abidjan","country":"Cote d'Ivoire","pres_sos":"John Forbes Kerry","position":"SOS","new_region":"Africa","remarks":"Met with Crown Prince Mohammed bin Zayed al-Nahyan and Foreign Minister Abdullah bin Zayed al-Nahyan.","distance":8177535.80350598}},{"type":"Feature","geometry":{"type":"Point","coordinates":[106.822745,-6.174465]},"properties":{"pres_id":69,"cartodb_id":2935,"city_id":161,"year":2014,"confidence":false,"notes":"","date_convert":"2014-02-16,2014-02-17","city":"Jakarta","country":"Indonesia","pres_sos":"John Forbes Kerry","position":"SOS","new_region":"East Asia","remarks":"Met with ASEAN Secretary-General Li Luong Minh, Foreign Minister Marty Natalegawa. Delivered an address on climate change. Attended a Joint Commission meeting. Signed Memoranda of Understanding on South-South Triangular Cooperation and Wildlife Trafficking.","distance":16354374.2823662}},{"type":"Feature","geometry":{"type":"Point","coordinates":[116.407395,39.904211]},"properties":{"pres_id":69,"cartodb_id":2934,"city_id":24,"year":2014,"confidence":false,"notes":"","date_convert":"2014-02-14,2014-02-15","city":"Beijing","country":"China","pres_sos":"John Forbes Kerry","position":"SOS","new_region":"East Asia","remarks":"Met with President Xi Jinping, Foreign Minister Wang Yi, and Premier Li Keqiang. Visited a joint venture plant.","distance":11144617.2862615}},{"type":"Feature","geometry":{"type":"Point","coordinates":[126.977969,37.566535]},"properties":{"pres_id":69,"cartodb_id":2933,"city_id":22,"year":2014,"confidence":false,"notes":"","date_convert":"2014-02-13,2014-02-14","city":"Seoul","country":"South Korea","pres_sos":"John Forbes Kerry","position":"SOS","new_region":"East Asia","remarks":"Met with President Park Geun-Hye and Foreign Minister Yun Byung-Se.","distance":11161346.1924669}},{"type":"Feature","geometry":{"type":"Point","coordinates":[11.581981,48.135125]},"properties":{"pres_id":69,"cartodb_id":2932,"city_id":138,"year":2014,"confidence":false,"notes":"","date_convert":"2014-01-31,2014-02-02","city":"Munich ","country":"Germany","pres_sos":"John Forbes Kerry","position":"SOS","new_region":"Western Europe","remarks":"Met with Chancellor Angela Merkel and Foreign Minister Frank-Walter Steinmeier. Attended the 50th Munich Security Conference.","distance":6824406.87912478}},{"type":"Feature","geometry":{"type":"Point","coordinates":[13.404954,52.520007]},"properties":{"pres_id":69,"cartodb_id":2931,"city_id":149,"year":2014,"confidence":false,"notes":"","date_convert":"2014-01-31,2014-02-02","city":"Berlin","country":"Germany","pres_sos":"John Forbes Kerry","position":"SOS","new_region":"Western Europe","remarks":"Met with Chancellor Angela Merkel and Foreign Minister Frank-Walter Steinmeier. Attended the 50th Munich Security Conference.","distance":6717976.71552502}},{"type":"Feature","geometry":{"type":"Point","coordinates":[39.208328,-6.792354]},"properties":{"pres_id":69,"cartodb_id":2930,"city_id":147,"year":2014,"confidence":false,"notes":"","date_convert":"2014-01-23,2014-01-24","city":"Dar es Salaam","country":"Tanzania","pres_sos":"John Forbes Kerry","position":"SOS","new_region":"Africa","remarks":"Attended the World Economic Forum.","distance":12751016.0740763}},{"type":"Feature","geometry":{"type":"Point","coordinates":[101.686855,3.139003]},"properties":{"pres_id":69,"cartodb_id":2929,"city_id":88,"year":2014,"confidence":false,"notes":"","date_convert":"2014-01-14,2014-01-15","city":"Kuala Lumpur","country":"Malaysia","pres_sos":"John Forbes Kerry","position":"SOS","new_region":"East Asia","remarks":"Attended the Syria Donors Conference.","distance":15339154.7233621}},{"type":"Feature","geometry":{"type":"Point","coordinates":[-79.51987,8.982379]},"properties":{"pres_id":69,"cartodb_id":2927,"city_id":134,"year":2014,"confidence":false,"notes":"","date_convert":"2014-01-12,2014-01-14","city":"Panama City","country":"Panama","pres_sos":"John Forbes Kerry","position":"SOS","new_region":"Latin America","remarks":"Attended the London 11 Ministerial Meeting and the Arab Peace Initiative Follow-up Committee Meeting. Met with Russian Foreign Minister Sergei Lavrov.","distance":3334966.59435672}},{"type":"Feature","geometry":{"type":"Point","coordinates":[46.675296,24.713552]},"properties":{"pres_id":69,"cartodb_id":2926,"city_id":53,"year":2014,"confidence":false,"notes":"","date_convert":"2014-01-05,2014-01-06","city":"Riyadh","country":"Saudi Arabia","pres_sos":"John Forbes Kerry","position":"SOS","new_region":"Middle East","remarks":"Met with King Abdullah bin Abdulaziz al-Said.","distance":10844923.8409589}},{"type":"Feature","geometry":{"type":"Point","coordinates":[35.2034,31.9038]},"properties":{"pres_id":69,"cartodb_id":2924,"city_id":151,"year":2014,"confidence":false,"notes":"","date_convert":"2014-01-03,2014-01-04","city":"Ramallah","country":"Palestinian Authority","pres_sos":"John Forbes Kerry","position":"SOS","new_region":"Middle East","remarks":"Met with President Mahmoud Abbas.","distance":9493820.46633906}},{"type":"Feature","geometry":{"type":"Point","coordinates":[35.21371,31.768319]},"properties":{"pres_id":69,"cartodb_id":2923,"city_id":51,"year":2014,"confidence":false,"notes":"","date_convert":"2014-01-02,2014-01-05","city":"Jerusalem","country":"Israel","pres_sos":"John Forbes Kerry","position":"SOS","new_region":"Middle East","remarks":"Met with Prime Minister Benjamin Netanyahu and Foreign Minister Avigdor Lieberman.","distance":9504946.68422716}},{"type":"Feature","geometry":{"type":"Point","coordinates":[120.984219,14.599512]},"properties":{"pres_id":69,"cartodb_id":2921,"city_id":55,"year":2013,"confidence":false,"notes":"","date_convert":"2013-12-17,2013-12-18","city":"Manila ","country":"Philippines","pres_sos":"John Forbes Kerry","position":"SOS","new_region":"East Asia","remarks":"Met with President Benigno Aquino and Foreign Secretary Albert del Rosario. Visited a USAID Forward Operating Base.","distance":13774524.0168199}},{"type":"Feature","geometry":{"type":"Point","coordinates":[124.961687,11.254339]},"properties":{"pres_id":69,"cartodb_id":2922,"city_id":272,"year":2013,"confidence":false,"notes":"","date_convert":"2013-12-17,2013-12-18","city":"Tacloban","country":"Philippines","pres_sos":"John Forbes Kerry","position":"SOS","new_region":"East Asia","remarks":"Met with President Benigno Aquino and Foreign Secretary Albert del Rosario. Visited a USAID Forward Operating Base.","distance":13985296.7335159}},{"type":"Feature","geometry":{"type":"Point","coordinates":[24.938379,60.169856]},"properties":{"pres_id":69,"cartodb_id":2918,"city_id":47,"year":2013,"confidence":false,"notes":"","date_convert":"2013-12-14,2013-12-17","city":"Helsinki","country":"Finland","pres_sos":"John Forbes Kerry","position":"SOS","new_region":"Western Europe","remarks":"Met with American and Vietnamese business leaders, addressed the American Chamber of Commerce, delivered an address on climate change, and met with Foreign Minister Pham Binh Minh.","distance":6936035.15670713}},{"type":"Feature","geometry":{"type":"Point","coordinates":[105.801944,21.0227]},"properties":{"pres_id":69,"cartodb_id":2919,"city_id":219,"year":2013,"confidence":false,"notes":"","date_convert":"2013-12-14,2013-12-17","city":"Hanoi","country":"Vietnam","pres_sos":"John Forbes Kerry","position":"SOS","new_region":"East Asia","remarks":"Met with American and Vietnamese business leaders, addressed the American Chamber of Commerce, delivered an address on climate change, and met with Foreign Minister Pham Binh Minh.","distance":13344969.6472964}},{"type":"Feature","geometry":{"type":"Point","coordinates":[105.196079,9.152673]},"properties":{"pres_id":69,"cartodb_id":2920,"city_id":271,"year":2013,"confidence":false,"notes":"","date_convert":"2013-12-14,2013-12-17","city":"Ca Mau","country":"Vietnam","pres_sos":"John Forbes Kerry","position":"SOS","new_region":"East Asia","remarks":"Met with American and Vietnamese business leaders, addressed the American Chamber of Commerce, delivered an address on climate change, and met with Foreign Minister Pham Binh Minh.","distance":14666438.7963244}},{"type":"Feature","geometry":{"type":"Point","coordinates":[34.781768,32.0853]},"properties":{"pres_id":69,"cartodb_id":2917,"city_id":75,"year":2013,"confidence":false,"notes":"","date_convert":"2013-12-12,2013-12-13","city":"Tel Aviv","country":"Israel","pres_sos":"John Forbes Kerry","position":"SOS","new_region":"Middle East","remarks":"Met with Prime Minister Benjamin Netanyahu.","distance":9451123.04028403}},{"type":"Feature","geometry":{"type":"Point","coordinates":[35.21371,31.768319]},"properties":{"pres_id":69,"cartodb_id":2916,"city_id":51,"year":2013,"confidence":false,"notes":"","date_convert":"2013-12-12,2013-12-13","city":"Jerusalem","country":"Israel","pres_sos":"John Forbes Kerry","position":"SOS","new_region":"Middle East","remarks":"Met with Prime Minister Benjamin Netanyahu.","distance":9504946.68422716}},{"type":"Feature","geometry":{"type":"Point","coordinates":[35.21371,31.768319]},"properties":{"pres_id":69,"cartodb_id":2914,"city_id":51,"year":2013,"confidence":false,"notes":"","date_convert":"2013-12-05,2013-12-06","city":"Jerusalem","country":"Israel","pres_sos":"John Forbes Kerry","position":"SOS","new_region":"Middle East","remarks":"Met with Prime Minister Benjamin Netanyahu and Finance Minister Yair Lapid.","distance":9504946.68422716}},{"type":"Feature","geometry":{"type":"Point","coordinates":[4.35171,50.85034]},"properties":{"pres_id":69,"cartodb_id":2912,"city_id":40,"year":2013,"confidence":false,"notes":"","date_convert":"2013-12-03,2013-12-04","city":"Brussels","country":"Belgium","pres_sos":"John Forbes Kerry","position":"SOS","new_region":"Western Europe","remarks":"Attended the NATO Foreign Ministers Meeting and a NATO-Russia Council Meeting. Signed Cyber Partnership Agreement with Estonia.","distance":6224186.6208891}},{"type":"Feature","geometry":{"type":"Point","coordinates":[-0.127758,51.507351]},"properties":{"pres_id":69,"cartodb_id":2911,"city_id":10,"year":2013,"confidence":false,"notes":"","date_convert":"2013-11-24,2013-11-25","city":"London ","country":"United Kingdom","pres_sos":"John Forbes Kerry","position":"SOS","new_region":"Western Europe","remarks":"Met with Foreign Secretary William Hague and Libyan Prime Minister Ali Zeidan.","distance":5905935.18935877}},{"type":"Feature","geometry":{"type":"Point","coordinates":[6.143158,46.204391]},"properties":{"pres_id":69,"cartodb_id":2910,"city_id":39,"year":2013,"confidence":false,"notes":"","date_convert":"2013-11-22,2013-11-24","city":"Geneva","country":"Switzerland","pres_sos":"John Forbes Kerry","position":"SOS","new_region":"Western Europe","remarks":"Met with the P5+1 representatives and Iranian Foreign Minister Mohammed Zarif. Announced a First Step Agreement on Irans Nuclear Program.","distance":6552418.20731486}},{"type":"Feature","geometry":{"type":"Point","coordinates":[54.377344,24.453884]},"properties":{"pres_id":69,"cartodb_id":2909,"city_id":166,"year":2013,"confidence":false,"notes":"","date_convert":"2013-11-10,2013-11-11","city":"Abu Dhabi","country":"United Arab Emirates","pres_sos":"John Forbes Kerry","position":"SOS","new_region":"Middle East","remarks":"Met with Crown Prince Mohammed bin Zayed al-Nahyan and Foreign Minister Abdullah bin Zayed al-Nahyan.","distance":11354027.3950751}},{"type":"Feature","geometry":{"type":"Point","coordinates":[6.143158,46.204391]},"properties":{"pres_id":69,"cartodb_id":2908,"city_id":39,"year":2013,"confidence":false,"notes":"","date_convert":"2013-11-08,2013-11-10","city":"Geneva","country":"Switzerland","pres_sos":"John Forbes Kerry","position":"SOS","new_region":"Western Europe","remarks":"Met with EU High Representative Catherine Ashton, French Foreign Minister Laurent Fabius, and Iranian Foreign Minister Mohammed Zarif.","distance":6552418.20731486}},{"type":"Feature","geometry":{"type":"Point","coordinates":[35.21371,31.768319]},"properties":{"pres_id":69,"cartodb_id":2904,"city_id":51,"year":2013,"confidence":false,"notes":"","date_convert":"2013-11-05,2013-11-07","city":"Jerusalem","country":"Israel","pres_sos":"John Forbes Kerry","position":"SOS","new_region":"Middle East","remarks":"Wreath-laying ceremony at the Yitzhak Rabin Memorial. Met with President Shimon Peres and Prime Minister Benjamin Netanyahu.","distance":9504946.68422716}},{"type":"Feature","geometry":{"type":"Point","coordinates":[34.781768,32.0853]},"properties":{"pres_id":69,"cartodb_id":2903,"city_id":75,"year":2013,"confidence":false,"notes":"","date_convert":"2013-11-05,2013-11-07","city":"Tel Aviv","country":"Israel","pres_sos":"John Forbes Kerry","position":"SOS","new_region":"Middle East","remarks":"Wreath-laying ceremony at the Yitzhak Rabin Memorial. Met with President Shimon Peres and Prime Minister Benjamin Netanyahu.","distance":9451123.04028403}},{"type":"Feature","geometry":{"type":"Point","coordinates":[21.012229,52.229676]},"properties":{"pres_id":69,"cartodb_id":2901,"city_id":143,"year":2013,"confidence":false,"notes":"","date_convert":"2013-11-04,2013-11-05","city":"Warsaw","country":"Poland","pres_sos":"John Forbes Kerry","position":"SOS","new_region":"Eastern Europe and Central Asia","remarks":"Wreath-laying at the grave of former Prime Minister Tadeusz Mazowiecki. Met with Prime Minister Donald Tusk and Foreign Minister Radoslaw Sikorski. Medal award ceremony at Lask air base.","distance":7185111.83832421}},{"type":"Feature","geometry":{"type":"Point","coordinates":[19.13278,51.59056]},"properties":{"pres_id":69,"cartodb_id":2902,"city_id":270,"year":2013,"confidence":false,"notes":"","date_convert":"2013-11-04,2013-11-05","city":"Lask","country":"Poland","pres_sos":"John Forbes Kerry","position":"SOS","new_region":"Eastern Europe and Central Asia","remarks":"Wreath-laying at the grave of former Prime Minister Tadeusz Mazowiecki. Met with Prime Minister Donald Tusk and Foreign Minister Radoslaw Sikorski. Medal award ceremony at Lask air base.","distance":7111273.04866843}},{"type":"Feature","geometry":{"type":"Point","coordinates":[46.675296,24.713552]},"properties":{"pres_id":69,"cartodb_id":2900,"city_id":53,"year":2013,"confidence":false,"notes":"","date_convert":"2013-11-03,2013-11-04","city":"Riyadh","country":"Saudi Arabia","pres_sos":"John Forbes Kerry","position":"SOS","new_region":"Middle East","remarks":"Met with Foreign Minister Saud al-Faisal and King Abdullah bin Abdulaziz al-Saud.","distance":10844923.8409589}},{"type":"Feature","geometry":{"type":"Point","coordinates":[12.496365,41.902783]},"properties":{"pres_id":69,"cartodb_id":2898,"city_id":8,"year":2013,"confidence":false,"notes":"","date_convert":"2013-10-22,2013-10-24","city":"Rome","country":"Italy","pres_sos":"John Forbes Kerry","position":"SOS","new_region":"Western Europe","remarks":"Met with Prime Minister Enrico Letta and Israeli Prime Minister Benjamin Netanyahu.","distance":7225571.0860885}},{"type":"Feature","geometry":{"type":"Point","coordinates":[2.352222,48.856614]},"properties":{"pres_id":69,"cartodb_id":2896,"city_id":6,"year":2013,"confidence":false,"notes":"","date_convert":"2013-10-21,2013-10-22","city":"Paris ","country":"France","pres_sos":"John Forbes Kerry","position":"SOS","new_region":"Western Europe","remarks":"Met with members of the Arab Peace Initiative Follow-up Committee, Saudi Foreign Minister Saud al-Faisal, Foreign Minister Laurent Fabius, and members of the Syrian Opposition Coalition.","distance":6173365.60870437}},{"type":"Feature","geometry":{"type":"Point","coordinates":[69.207486,34.555349]},"properties":{"pres_id":69,"cartodb_id":2895,"city_id":155,"year":2013,"confidence":false,"notes":"","date_convert":"2013-10-11,2013-10-12","city":"Kabul","country":"Afghanistan","pres_sos":"John Forbes Kerry","position":"SOS","new_region":"South Asia","remarks":"Met with President Hamid Karzai. Signed Bilateral Security Agreement.","distance":11144117.6008592}},{"type":"Feature","geometry":{"type":"Point","coordinates":[101.686855,3.139003]},"properties":{"pres_id":69,"cartodb_id":2894,"city_id":88,"year":2013,"confidence":false,"notes":"","date_convert":"2013-10-10,2013-10-11","city":"Kuala Lumpur","country":"Malaysia","pres_sos":"John Forbes Kerry","position":"SOS","new_region":"East Asia","remarks":"Attended the Fourth Global Entrepreneurship Summit.","distance":15339154.7233621}},{"type":"Feature","geometry":{"type":"Point","coordinates":[115.091951,-8.340539]},"properties":{"pres_id":69,"cartodb_id":2892,"city_id":43,"year":2013,"confidence":false,"notes":"","date_convert":"2013-10-04,2013-10-09","city":"Bali","country":"Indonesia","pres_sos":"John Forbes Kerry","position":"SOS","new_region":"East Asia","remarks":"Attended the APEC Ministerial Meeting and the APEC CEO Summit Meeting. Signed Nuclear Risk Reduction Agreement with Russian Foreign Minister Sergey Lavrov.","distance":16403578.1119265}},{"type":"Feature","geometry":{"type":"Point","coordinates":[139.731094,35.709038]},"properties":{"pres_id":69,"cartodb_id":2891,"city_id":21,"year":2013,"confidence":false,"notes":"","date_convert":"2013-10-02,2013-10-04","city":"Tokyo","country":"Japan","pres_sos":"John Forbes Kerry","position":"SOS","new_region":"East Asia","remarks":"Attended the U.S.-Japan Security Consultative Committee meeting. Signed Protocol to amend the Guam International Agreement concerning redeployment of U.S. forces from Okinawa to Guam.","distance":10895520.6663545}},{"type":"Feature","geometry":{"type":"Point","coordinates":[35.21371,31.768319]},"properties":{"pres_id":69,"cartodb_id":2889,"city_id":51,"year":2013,"confidence":false,"notes":"","date_convert":"2013-09-15,2013-09-16","city":"Jerusalem","country":"Israel","pres_sos":"John Forbes Kerry","position":"SOS","new_region":"Middle East","remarks":"Met with Prime Minister Benjamin Netanyahu.","distance":9504946.68422716}},{"type":"Feature","geometry":{"type":"Point","coordinates":[6.143158,46.204391]},"properties":{"pres_id":69,"cartodb_id":2888,"city_id":39,"year":2013,"confidence":false,"notes":"","date_convert":"2013-09-12,2013-09-15","city":"Geneva","country":"Switzerland","pres_sos":"John Forbes Kerry","position":"SOS","new_region":"Western Europe","remarks":"Discussed the Syrian crisis with Russian Foreign Minister Sergey Lavrov. Announced Framework for the Elimination of Syrian Chemical Weapons.","distance":6552418.20731486}},{"type":"Feature","geometry":{"type":"Point","coordinates":[-0.127758,51.507351]},"properties":{"pres_id":69,"cartodb_id":2887,"city_id":10,"year":2013,"confidence":false,"notes":"","date_convert":"2013-09-08,2013-09-09","city":"London ","country":"United Kingdom","pres_sos":"John Forbes Kerry","position":"SOS","new_region":"Western Europe","remarks":"Met with Palestinian Authority President Mahmoud Abbas and with Foreign Secretary William Hague.","distance":5905935.18935877}},{"type":"Feature","geometry":{"type":"Point","coordinates":[2.352222,48.856614]},"properties":{"pres_id":69,"cartodb_id":2886,"city_id":6,"year":2013,"confidence":false,"notes":"","date_convert":"2013-09-07,2013-09-08","city":"Paris ","country":"France","pres_sos":"John Forbes Kerry","position":"SOS","new_region":"Western Europe","remarks":"Met with Foreign Minister Laurent Fabius and the Ministerial Delegation of the Arab Peace Initiative.","distance":6173365.60870437}},{"type":"Feature","geometry":{"type":"Point","coordinates":[-74.072092,4.710989]},"properties":{"pres_id":69,"cartodb_id":2883,"city_id":17,"year":2013,"confidence":false,"notes":"","date_convert":"2013-08-12,2013-08-13","city":"Bogota","country":"Colombia","pres_sos":"John Forbes Kerry","position":"SOS","new_region":"Latin America","remarks":"Met with President Juan Manuel Santos, Foreign Minister Maria Angela Holguin, Defense Minister Juan Carlos Pinzon, and Colombian Peace Negotiators.","distance":3814273.6958985}},{"type":"Feature","geometry":{"type":"Point","coordinates":[73.093146,33.729388]},"properties":{"pres_id":69,"cartodb_id":2881,"city_id":79,"year":2013,"confidence":false,"notes":"","date_convert":"2013-07-31,2013-08-02","city":"Islamabad","country":"Pakistan","pres_sos":"John Forbes Kerry","position":"SOS","new_region":"South Asia","remarks":"Met with President Asif Zardari, Prime Minister Nawaz Sharif, National Security Adviser Sartaj Aziz. Visited Zero Point Power Plant.","distance":11376644.2400773}},{"type":"Feature","geometry":{"type":"Point","coordinates":[35.928372,31.945367]},"properties":{"pres_id":69,"cartodb_id":2879,"city_id":52,"year":2013,"confidence":false,"notes":"","date_convert":"2013-07-16,2013-07-19","city":"Amman ","country":"Jordan","pres_sos":"John Forbes Kerry","position":"SOS","new_region":"Middle East","remarks":"Met with Foreign Minister Nasser Judeh and Palestinian Authority President Mahmoud Abbas. Attended an Arab League Peace Initiative Meeting. Visited the Zaatri Refugee Camp.","distance":9539874.68041736}},{"type":"Feature","geometry":{"type":"Point","coordinates":[39.208328,-6.792354]},"properties":{"pres_id":70,"cartodb_id":2783,"city_id":147,"year":2013,"confidence":true,"notes":"","date_convert":"2013-07-01,2013-07-02","city":"Dar es Salaam","country":"Tanzania","pres_sos":"Obama","position":"President","new_region":"Africa","remarks":"Met with President Jakaya Kikwete. Laid a wreath at the memorial to the 1998 Embassy bombing.","distance":12751016.0740763}},{"type":"Feature","geometry":{"type":"Point","coordinates":[28.047305,-26.204103]},"properties":{"pres_id":70,"cartodb_id":2780,"city_id":148,"year":2013,"confidence":false,"notes":"","date_convert":"2013-06-28,2013-07-01","city":"Johannesburg","country":"South Africa","pres_sos":"Obama","position":"President","new_region":"Africa","remarks":"Met with President Jacob Zuma and with members of the Mandela family. Visited Robben Island.","distance":13055642.7907229}},{"type":"Feature","geometry":{"type":"Point","coordinates":[28.057864,-25.758583]},"properties":{"pres_id":70,"cartodb_id":2782,"city_id":200,"year":2013,"confidence":false,"notes":"","date_convert":"2013-06-28,2013-07-01","city":"Pretoria","country":"South Africa","pres_sos":"Obama","position":"President","new_region":"Africa","remarks":"Met with President Jacob Zuma and with members of the Mandela family. Visited Robben Island.","distance":13030051.3705698}},{"type":"Feature","geometry":{"type":"Point","coordinates":[35.21371,31.768319]},"properties":{"pres_id":69,"cartodb_id":2874,"city_id":51,"year":2013,"confidence":false,"notes":"","date_convert":"2013-06-27,2013-06-30","city":"Jerusalem","country":"Israel","pres_sos":"John Forbes Kerry","position":"SOS","new_region":"Middle East","remarks":"Met with Prime Minister Benjamin Netanyahu.","distance":9504946.68422716}},{"type":"Feature","geometry":{"type":"Point","coordinates":[-17.366029,14.764504]},"properties":{"pres_id":70,"cartodb_id":2779,"city_id":109,"year":2013,"confidence":false,"notes":"","date_convert":"2013-06-26,2013-06-28","city":"Dakar","country":"Senegal","pres_sos":"Obama","position":"President","new_region":"Africa","remarks":"Met with President Macky Sall.","distance":6383050.71777651}},{"type":"Feature","geometry":{"type":"Point","coordinates":[39.237551,21.285407]},"properties":{"pres_id":69,"cartodb_id":2871,"city_id":120,"year":2013,"confidence":false,"notes":"","date_convert":"2013-06-25,2013-06-26","city":"Jeddah","country":"Saudi Arabia","pres_sos":"John Forbes Kerry","position":"SOS","new_region":"Middle East","remarks":"Met with Foreign Minister Prince Saud al-Faisal.","distance":10609802.5822191}},{"type":"Feature","geometry":{"type":"Point","coordinates":[77.209021,28.613939]},"properties":{"pres_id":69,"cartodb_id":2870,"city_id":78,"year":2013,"confidence":false,"notes":"","date_convert":"2013-06-23,2013-06-25","city":"New Delhi","country":"India","pres_sos":"John Forbes Kerry","position":"SOS","new_region":"South Asia","remarks":"Attended the Fourth Annual U.S.-India Strategic Dialogue and the Second U.S.-India Education Dialogue.","distance":12050633.5178933}},{"type":"Feature","geometry":{"type":"Point","coordinates":[51.53104,25.285447]},"properties":{"pres_id":69,"cartodb_id":2869,"city_id":167,"year":2013,"confidence":false,"notes":"","date_convert":"2013-06-22,2013-06-23","city":"Doha","country":"Qatar","pres_sos":"John Forbes Kerry","position":"SOS","new_region":"Middle East","remarks":"Attended the London Eleven Plenary Meeting and met with Heir Apparent Sheikh Tamin al-Thani, Prime Minister/Foreign Minister Sheikh Hamad al-Thani and Amir Hamad al-Thani.","distance":11106402.231555}},{"type":"Feature","geometry":{"type":"Point","coordinates":[13.404954,52.520007]},"properties":{"pres_id":70,"cartodb_id":2778,"city_id":149,"year":2013,"confidence":false,"notes":"","date_convert":"2013-06-18,2013-06-19","city":"Berlin","country":"Germany","pres_sos":"Obama","position":"President","new_region":"Western Europe","remarks":"Met with President Joachim Gauck and Chancellor Angela Merkel.","distance":6717976.71552502}},{"type":"Feature","geometry":{"type":"Point","coordinates":[-5.93012,54.597285]},"properties":{"pres_id":70,"cartodb_id":2776,"city_id":150,"year":2013,"confidence":false,"notes":"","date_convert":"2013-06-16,2013-06-18","city":"Belfast","country":"United Kingdom","pres_sos":"Obama","position":"President","new_region":"Western Europe","remarks":"Attended the G-8 Economic Summit Meeting.","distance":5440969.95903745}},{"type":"Feature","geometry":{"type":"Point","coordinates":[68.641496,38.56124]},"properties":{"pres_id":70,"cartodb_id":2777,"city_id":280,"year":2013,"confidence":false,"notes":"","date_convert":"2013-06-16,2013-06-18","city":"Dushanbe","country":"Tajikistan","pres_sos":"Obama","position":"President","new_region":"Eastern Europe and Central Asia","remarks":"Attended the G-8 Economic Summit Meeting.","distance":10721711.7847217}},{"type":"Feature","geometry":{"type":"Point","coordinates":[-90.506882,14.634915]},"properties":{"pres_id":69,"cartodb_id":2868,"city_id":128,"year":2013,"confidence":false,"notes":"","date_convert":"2013-06-04,2013-06-04","city":"Guatemala City","country":"Guatemala","pres_sos":"John Forbes Kerry","position":"SOS","new_region":"Latin America","remarks":"Attended the OAS General Assembly.","distance":2998081.63172258}},{"type":"Feature","geometry":{"type":"Point","coordinates":[2.352222,48.856614]},"properties":{"pres_id":69,"cartodb_id":2867,"city_id":6,"year":2013,"confidence":false,"notes":"","date_convert":"2013-05-27,2013-05-28","city":"Paris ","country":"France","pres_sos":"John Forbes Kerry","position":"SOS","new_region":"Western Europe","remarks":"Met with French Foreign Minister Laurent Fabius and Russian Foreign Minister Sergey Lavrov.","distance":6173365.60870437}},{"type":"Feature","geometry":{"type":"Point","coordinates":[35.928372,31.945367]},"properties":{"pres_id":69,"cartodb_id":2866,"city_id":52,"year":2013,"confidence":false,"notes":"","date_convert":"2013-05-26,2013-05-27","city":"Amman ","country":"Jordan","pres_sos":"John Forbes Kerry","position":"SOS","new_region":"Middle East","remarks":"Attended the World Economic Forum.","distance":9539874.68041736}},{"type":"Feature","geometry":{"type":"Point","coordinates":[38.757761,8.980603]},"properties":{"pres_id":69,"cartodb_id":2865,"city_id":137,"year":2013,"confidence":false,"notes":"","date_convert":"2013-05-24,2013-05-26","city":"Addis Ababa","country":"Ethiopia","pres_sos":"John Forbes Kerry","position":"SOS","new_region":"Africa","remarks":"Attended the African Union Summit and commemorated the Golden Jubilee of the Organization of African Unity.","distance":11537897.2292768}},{"type":"Feature","geometry":{"type":"Point","coordinates":[35.2034,31.9038]},"properties":{"pres_id":69,"cartodb_id":2864,"city_id":151,"year":2013,"confidence":false,"notes":"","date_convert":"2013-05-23,2013-05-24","city":"Ramallah","country":"Palestinian Authority","pres_sos":"John Forbes Kerry","position":"SOS","new_region":"Middle East","remarks":"Met with President Mahmoud Abbas.","distance":9493820.46633906}},{"type":"Feature","geometry":{"type":"Point","coordinates":[35.21371,31.768319]},"properties":{"pres_id":69,"cartodb_id":2863,"city_id":51,"year":2013,"confidence":false,"notes":"","date_convert":"2013-05-23,2013-05-24","city":"Jerusalem","country":"Israel","pres_sos":"John Forbes Kerry","position":"SOS","new_region":"Middle East","remarks":"Met with Prime Minister Benjamin Netanyahu and President Shimon Peres.","distance":9504946.68422716}},{"type":"Feature","geometry":{"type":"Point","coordinates":[58.405923,23.58589]},"properties":{"pres_id":69,"cartodb_id":2861,"city_id":169,"year":2013,"confidence":false,"notes":"","date_convert":"2013-05-21,2013-05-22","city":"Muscat","country":"Oman","pres_sos":"John Forbes Kerry","position":"SOS","new_region":"Middle East","remarks":"Met with Sultan Qaboos bin Said al Said and Defense Minister Said Badr al-Busaidi.","distance":11669990.9366349}},{"type":"Feature","geometry":{"type":"Point","coordinates":[20.216667,67.85]},"properties":{"pres_id":69,"cartodb_id":2860,"city_id":269,"year":2013,"confidence":false,"notes":"","date_convert":"2013-05-14,2013-05-15","city":"Kiruna","country":"Sweden","pres_sos":"John Forbes Kerry","position":"SOS","new_region":"Western Europe","remarks":"Met with Prime Minister Fredrik Reinfeldt and Foreign Minister Carl Bildt. Attended the Arctic Council Ministerial Meeting at Kiruna.","distance":6343247.73577617}},{"type":"Feature","geometry":{"type":"Point","coordinates":[12.496365,41.902783]},"properties":{"pres_id":69,"cartodb_id":2858,"city_id":8,"year":2013,"confidence":false,"notes":"","date_convert":"2013-05-08,2013-05-09","city":"Rome","country":"Italy","pres_sos":"John Forbes Kerry","position":"SOS","new_region":"Western Europe","remarks":"Met with Foreign Minister Emma Bonino, Jordanian Foreign Minister Nasser Judeh, and Israeli Justice Minister Tzipi Livni.","distance":7225571.0860885}},{"type":"Feature","geometry":{"type":"Point","coordinates":[37.6173,55.755826]},"properties":{"pres_id":69,"cartodb_id":2857,"city_id":48,"year":2013,"confidence":false,"notes":"","date_convert":"2013-05-07,2013-05-08","city":"Moscow","country":"Russia","pres_sos":"John Forbes Kerry","position":"SOS","new_region":"Eastern Europe and Central Asia","remarks":"Met with President Vladimir Putin and Foreign Minister Sergey Lavrov.","distance":7827156.40812477}},{"type":"Feature","geometry":{"type":"Point","coordinates":[-89.910623,16.987587]},"properties":{"pres_id":70,"cartodb_id":2775,"city_id":255,"year":2013,"confidence":false,"notes":"","date_convert":"2013-05-03,2013-05-04","city":"San Jose","country":"Guatemala","pres_sos":"Obama","position":"President","new_region":"Latin America","remarks":"Met with President Laura Chinchilla and leaders of the Central American Integration System.","distance":2733034.98739203}},{"type":"Feature","geometry":{"type":"Point","coordinates":[-99.2837,19.39068]},"properties":{"pres_id":70,"cartodb_id":2774,"city_id":188,"year":2013,"confidence":false,"notes":"","date_convert":"2013-05-02,2013-05-03","city":"Mexico City","country":"Mexico","pres_sos":"Obama","position":"President","new_region":"Latin America","remarks":"Met with President Enrique Pena Nieto.","distance":3037037.69345954}},{"type":"Feature","geometry":{"type":"Point","coordinates":[126.977969,37.566535]},"properties":{"pres_id":70,"cartodb_id":2773,"city_id":22,"year":2013,"confidence":false,"notes":"","date_convert":"2013-04-25,2013-04-26","city":"Seoul","country":"South Korea","pres_sos":"Obama","position":"President","new_region":"East Asia","remarks":"Met with President Park Geun-hye, attended a wreath-laying ceremony at the National War Memorial, and visited U.S. military personnel.","distance":11161346.1924669}},{"type":"Feature","geometry":{"type":"Point","coordinates":[4.35171,50.85034]},"properties":{"pres_id":69,"cartodb_id":2856,"city_id":40,"year":2013,"confidence":false,"notes":"","date_convert":"2013-04-21,2013-04-24","city":"Brussels","country":"Belgium","pres_sos":"John Forbes Kerry","position":"SOS","new_region":"Western Europe","remarks":"Attended a NATO Foreign Ministers Meeting. Also attended a NATO-Russia Council Ministerial meeting. Signed agreement with Lithuania on countering nuclear smuggling. Met with Afghan President Hamad Karzai and Pakistani General Ashfaq Kayani.","distance":6224186.6208891}},{"type":"Feature","geometry":{"type":"Point","coordinates":[116.407395,39.904211]},"properties":{"pres_id":69,"cartodb_id":2853,"city_id":24,"year":2013,"confidence":false,"notes":"","date_convert":"2013-04-13,2013-04-14","city":"Beijing","country":"China","pres_sos":"John Forbes Kerry","position":"SOS","new_region":"East Asia","remarks":"Met with President Xi Jinping, Premier Li Liqiang, and Foreign Minister Wang Yi.","distance":11144617.2862615}},{"type":"Feature","geometry":{"type":"Point","coordinates":[126.977969,37.566535]},"properties":{"pres_id":69,"cartodb_id":2852,"city_id":22,"year":2013,"confidence":false,"notes":"","date_convert":"2013-04-12,2013-04-13","city":"Seoul","country":"South Korea","pres_sos":"John Forbes Kerry","position":"SOS","new_region":"East Asia","remarks":"Met with President Park Gyeun-hye and Prime Minister Yun Byun-se. Addressed the American Chamber of Commerce.","distance":11161346.1924669}},{"type":"Feature","geometry":{"type":"Point","coordinates":[-0.127758,51.507351]},"properties":{"pres_id":69,"cartodb_id":2851,"city_id":10,"year":2013,"confidence":false,"notes":"","date_convert":"2013-04-10,2013-04-11","city":"London ","country":"United Kingdom","pres_sos":"John Forbes Kerry","position":"SOS","new_region":"Western Europe","remarks":"Attended the G=8 Foreign Ministers Meeting.","distance":5905935.18935877}},{"type":"Feature","geometry":{"type":"Point","coordinates":[34.781768,32.0853]},"properties":{"pres_id":69,"cartodb_id":2849,"city_id":75,"year":2013,"confidence":false,"notes":"","date_convert":"2013-04-07,2013-04-09","city":"Tel Aviv","country":"Israel","pres_sos":"John Forbes Kerry","position":"SOS","new_region":"Middle East","remarks":"Met with President Shimon Peres, Prime Minister Benjamin Netanyahu, and Palestinian Authority Prime Minister Salam Fayyad.","distance":9451123.04028403}},{"type":"Feature","geometry":{"type":"Point","coordinates":[35.21371,31.768319]},"properties":{"pres_id":69,"cartodb_id":2848,"city_id":51,"year":2013,"confidence":false,"notes":"","date_convert":"2013-04-07,2013-04-09","city":"Jerusalem","country":"Israel","pres_sos":"John Forbes Kerry","position":"SOS","new_region":"Middle East","remarks":"Met with President Shimon Peres, Prime Minister Benjamin Netanyahu, and Palestinian Authority Prime Minister Salam Fayyad.","distance":9504946.68422716}},{"type":"Feature","geometry":{"type":"Point","coordinates":[2.352222,48.856614]},"properties":{"pres_id":69,"cartodb_id":2846,"city_id":6,"year":2013,"confidence":false,"notes":"","date_convert":"2013-03-26,- 2013-03-27","city":"Paris ","country":"France","pres_sos":"John Forbes Kerry","position":"SOS","new_region":"Western Europe","remarks":"Met with Foreign Minister Laurent Fabius and addressed French business leaders.","distance":6173365.60870437}},{"type":"Feature","geometry":{"type":"Point","coordinates":[69.207486,34.555349]},"properties":{"pres_id":69,"cartodb_id":2845,"city_id":155,"year":2013,"confidence":false,"notes":"","date_convert":"2013-03-25,- 2013-03-26","city":"Kabul","country":"Afghanistan","pres_sos":"John Forbes Kerry","position":"SOS","new_region":"South Asia","remarks":"Met with President Hamid Karzai.","distance":11144117.6008592}},{"type":"Feature","geometry":{"type":"Point","coordinates":[44.361488,33.312806]},"properties":{"pres_id":69,"cartodb_id":2844,"city_id":168,"year":2013,"confidence":false,"notes":"","date_convert":"2013-03-24,- 2013-03-25","city":"Baghdad","country":"Iraq","pres_sos":"John Forbes Kerry","position":"SOS","new_region":"Middle East","remarks":"Met with President Nouri al-Maliki and Iraqi political leaders.","distance":9976320.33482163}},{"type":"Feature","geometry":{"type":"Point","coordinates":[71.58049,34.014975]},"properties":{"pres_id":70,"cartodb_id":2772,"city_id":80,"year":2013,"confidence":false,"notes":"","date_convert":"2013-03-22,2013-03-24","city":"Peshawar","country":"Pakistan","pres_sos":"Obama","position":"President","new_region":"South Asia","remarks":"Met with King Abdullah II.","distance":11291201.4867207}},{"type":"Feature","geometry":{"type":"Point","coordinates":[35.928372,31.945367]},"properties":{"pres_id":70,"cartodb_id":2771,"city_id":52,"year":2013,"confidence":false,"notes":"","date_convert":"2013-03-22,2013-03-24","city":"Amman ","country":"Jordan","pres_sos":"Obama","position":"President","new_region":"Middle East","remarks":"Met with King Abdullah II.","distance":9539874.68041736}},{"type":"Feature","geometry":{"type":"Point","coordinates":[35.928372,31.945367]},"properties":{"pres_id":69,"cartodb_id":2843,"city_id":52,"year":2013,"confidence":false,"notes":"","date_convert":"2013-03-22,- 2013-03-24","city":"Amman ","country":"Jordan","pres_sos":"John Forbes Kerry","position":"SOS","new_region":"Middle East","remarks":"Accompanied President Obama.","distance":9539874.68041736}},{"type":"Feature","geometry":{"type":"Point","coordinates":[35.202442,31.705382]},"properties":{"pres_id":70,"cartodb_id":2770,"city_id":172,"year":2013,"confidence":false,"notes":"","date_convert":"2013-03-21,2013-03-22","city":"Bethlehem","country":"Palestinian Authority","pres_sos":"Obama","position":"President","new_region":"Middle East","remarks":"Met with President Mahmoud Abbas.","distance":9509019.84013384}},{"type":"Feature","geometry":{"type":"Point","coordinates":[35.2034,31.9038]},"properties":{"pres_id":70,"cartodb_id":2768,"city_id":151,"year":2013,"confidence":false,"notes":"","date_convert":"2013-03-21,2013-03-22","city":"Ramallah","country":"Palestinian Authority","pres_sos":"Obama","position":"President","new_region":"Middle East","remarks":"Met with President Mahmoud Abbas.","distance":9493820.46633906}},{"type":"Feature","geometry":{"type":"Point","coordinates":[35.221717,31.912563]},"properties":{"pres_id":70,"cartodb_id":2769,"city_id":276,"year":2013,"confidence":false,"notes":"","date_convert":"2013-03-21,2013-03-22","city":"Al-Bireh","country":"Palestinian Authority","pres_sos":"Obama","position":"President","new_region":"Middle East","remarks":"Met with President Mahmoud Abbas.","distance":9494394.73662746}},{"type":"Feature","geometry":{"type":"Point","coordinates":[35.21371,31.768319]},