{"type": "FeatureCollection", "features": [{"type":"Feature","geometry":{"type":"Point","coordinates":[-77.042793,-12.046374]},"properties":{"pres_id":70,"cartodb_id":4218,"city_id":194,"year":2016,"confidence":true,"notes":"","date_convert":"2016-11-18, 2016-11-20","city":"Lima","country":"Peru","pres_sos":"Obama","position":"President","new_region":"Latin America","remarks":"Attended APEC Economic Leaders' Meeting. Hosted a Young Leaders of the Americas Initiative town hall.","distance":5664916.29061856}},{"type":"Feature","geometry":{"type":"Point","coordinates":[13.404954,52.520007]},"properties":{"pres_id":70,"cartodb_id":4217,"city_id":149,"year":2016,"confidence":true,"notes":"","date_convert":"2016-11-16, 2016-11-18","city":"Berlin","country":"Germany","pres_sos":"Obama","position":"President","new_region":"Western Europe","remarks":"Met with European leaders of the \"Quint.\"","distance":6717976.71552502}},{"type":"Feature","geometry":{"type":"Point","coordinates":[23.727539,37.98381]},"properties":{"pres_id":70,"cartodb_id":4216,"city_id":68,"year":2016,"confidence":true,"notes":"","date_convert":"2016-11-15, 2016-11-16","city":"Athens","country":"Greece","pres_sos":"Obama","position":"President","new_region":"Western Europe","remarks":"Met with Prime Minister Alexis Tsipras and President Prokopis Pavlopoulos. Attended state dinner. Toured Acropolis.","distance":8261389.07774098}},{"type":"Feature","geometry":{"type":"Point","coordinates":[35.21371,31.768319]},"properties":{"pres_id":70,"cartodb_id":4215,"city_id":51,"year":2016,"confidence":true,"notes":"","date_convert":"2016-09-30,","city":"Jerusalem","country":"Israel","pres_sos":"Obama","position":"President","new_region":"Middle East","remarks":"Attended memorial service for former President and Prime Minister Shimon Peres.","distance":9504946.68422716}},{"type":"Feature","geometry":{"type":"Point","coordinates":[120.1551,30.2741]},"properties":{"pres_id":70,"cartodb_id":4213,"city_id":345,"year":2016,"confidence":true,"notes":"","date_convert":"2016-09-03, 2016-09-05","city":"Hangzhou","country":"China","pres_sos":"Obama","position":"President","new_region":"East Asia","remarks":"Attended G-20 summit meeting.","distance":12117119.4419782}},{"type":"Feature","geometry":{"type":"Point","coordinates":[-3.70379,40.416775]},"properties":{"pres_id":70,"cartodb_id":4211,"city_id":36,"year":2016,"confidence":false,"notes":"","date_convert":"2016-07-09, 2016-07-10","city":"Madrid","country":"Spain","pres_sos":"Obama","position":"President","new_region":"Western Europe","remarks":"Met with Prime Minister Mariano Rajoy and King Felipe VI.","distance":6097632.31893352}},{"type":"Feature","geometry":{"type":"Point","coordinates":[21.012229,52.229676]},"properties":{"pres_id":70,"cartodb_id":4210,"city_id":143,"year":2016,"confidence":true,"notes":"","date_convert":"2016-07-07, 2016-07-09","city":"Warsaw","country":"Poland","pres_sos":"Obama","position":"President","new_region":"Eastern Europe and Central Asia","remarks":"Attended NATO summit meeting.","distance":7185111.83832421}},{"type":"Feature","geometry":{"type":"Point","coordinates":[-75.697193,45.42153]},"properties":{"pres_id":70,"cartodb_id":4209,"city_id":1,"year":2016,"confidence":true,"notes":"","date_convert":"2016-06-29,","city":"Ottawa","country":"Canada","pres_sos":"Obama","position":"President","new_region":"Canada","remarks":"Met with Governor General David Johnston and Prime Minister Justin Trudeau. Participated in the North American Leaders' Summit.","distance":735088.944328151}},{"type":"Feature","geometry":{"type":"Point","coordinates":[106.6297,10.8231]},"properties":{"pres_id":70,"cartodb_id":4206,"city_id":607,"year":2016,"confidence":true,"notes":"","date_convert":"2016-05-24, 2016-05-25","city":"Ho Chi Minh City","country":"Vietnam","pres_sos":"Obama","position":"President","new_region":"East Asia","remarks":"Visited Jade Emperor Pagoda. Met with entrepreneurs and participated in town hall. ","distance":14472326.0132048}},{"type":"Feature","geometry":{"type":"Point","coordinates":[105.835977,21.030434]},"properties":{"pres_id":70,"cartodb_id":4205,"city_id":219,"year":2016,"confidence":true,"notes":"","date_convert":"2016-05-22, 2016-05-24","city":"Hanoi","country":"Vietnam","pres_sos":"Obama","position":"President","new_region":"East Asia","remarks":"Met with President Tran Dai Quang and National Assembly Chairwoman Nguyen Thi Kim Ngan. Attended state luncheon. Met with Prime Minister Nguyen Xuan Phuc and Communisty Party General Secretary Nguyen Phu Trong. Met with activists and addressed Vietnamese people.","distance":13343945.9473564}},{"type":"Feature","geometry":{"type":"Point","coordinates":[-0.127758,51.507351]},"properties":{"pres_id":70,"cartodb_id":4203,"city_id":10,"year":2016,"confidence":true,"notes":"","date_convert":"2016-04-21, 2016-04-24","city":"London ","country":"United Kingdom","pres_sos":"Obama","position":"President","new_region":"Western Europe","remarks":"Attended lunch with Queen Elizabeth II and Prince Philip. Met with Prime Minister David Cameron. Attended dinner with Prince William, Catherine, Duchess of Cambridge, and Prince Harry. Participated in town hall meeting.","distance":5905935.18935877}},{"type":"Feature","geometry":{"type":"Point","coordinates":[46.675296,24.713552]},"properties":{"pres_id":70,"cartodb_id":4202,"city_id":53,"year":2016,"confidence":true,"notes":"","date_convert":"2016-04-20, 2016-04-21","city":"Riyadh","country":"Saudi Arabia","pres_sos":"Obama","position":"President","new_region":"Middle East","remarks":"Attended summit meeting with Gulf Cooperation Council. Met with King Salman.","distance":10844923.8409589}},{"type":"Feature","geometry":{"type":"Point","coordinates":[-71.310278,-41.133472]},"properties":{"pres_id":70,"cartodb_id":4201,"city_id":384,"year":2016,"confidence":true,"notes":"","date_convert":"2016-03-24,","city":"San Carlos de Bariloche","country":"Argentina","pres_sos":"Obama","position":"President","new_region":"Latin America","remarks":"Hiked at Nahuel Huapi National Park.","distance":8918949.84511516}},{"type":"Feature","geometry":{"type":"Point","coordinates":[-58.381559,-34.603684]},"properties":{"pres_id":70,"cartodb_id":4200,"city_id":65,"year":2016,"confidence":true,"notes":"","date_convert":"2016-03-23, 2016-03-24","city":"Buenos Aires","country":"Argentina","pres_sos":"Obama","position":"President","new_region":"Latin America","remarks":"Met with President Macri. Visited the Buenos Aires Metropolitan Cathedral, held town hall meeting, and attended state dinner. Visited Belgrano Remembrance park.","distance":8398469.04577097}},{"type":"Feature","geometry":{"type":"Point","coordinates":[37.6173,55.755826]},"properties":{"pres_id":69,"cartodb_id":4169,"city_id":48,"year":2015,"confidence":true,"notes":"","date_convert":"2015-12-15","city":"Moscow","country":"Russia","pres_sos":"John Forbes Kerry","position":"SOS","new_region":"Eastern Europe and Central Asia","remarks":"Met with President Vladimir Putin and Foreign Minister Sergey Lavrov.","distance":7827156.40812477}},{"type":"Feature","geometry":{"type":"Point","coordinates":[2.352222,48.856614]},"properties":{"pres_id":69,"cartodb_id":4168,"city_id":6,"year":2015,"confidence":true,"notes":"","date_convert":"2015-12-14","city":"Paris ","country":"France","pres_sos":"John Forbes Kerry","position":"SOS","new_region":"Western Europe","remarks":"Attended a Ministerial Meeting on Syria.","distance":6173365.60870437}},{"type":"Feature","geometry":{"type":"Point","coordinates":[12.496365,41.902783]},"properties":{"pres_id":69,"cartodb_id":3364,"city_id":8,"year":2015,"confidence":false,"notes":"","date_convert":"2015-12-12,2015-12-15","city":"Rome","country":"Italy","pres_sos":"John Forbes Kerry","position":"SOS","new_region":"Western Europe","remarks":"Attended a Ministerial Meeting on Libya.","distance":7225571.0860885}},{"type":"Feature","geometry":{"type":"Point","coordinates":[2.352222,48.856614]},"properties":{"pres_id":69,"cartodb_id":3363,"city_id":6,"year":2015,"confidence":false,"notes":"","date_convert":"2015-12-08,2015-12-12","city":"Paris ","country":"France","pres_sos":"John Forbes Kerry","position":"SOS","new_region":"Western Europe","remarks":"Attended the UN Climate Change Summit.","distance":6173365.60870437}},{"type":"Feature","geometry":{"type":"Point","coordinates":[23.727539,37.98381]},"properties":{"pres_id":69,"cartodb_id":4167,"city_id":68,"year":2015,"confidence":true,"notes":"","date_convert":"2015-12-04","city":"Athens","country":"Greece","pres_sos":"John Forbes Kerry","position":"SOS","new_region":"Western Europe","remarks":"Met with Prime Minister Alexis Tsipras and Foreign Minister Nikos Kotzias. Visited migrants and volunteers.","distance":8261389.07774098}},{"type":"Feature","geometry":{"type":"Point","coordinates":[-2.997664,51.584151]},"properties":{"pres_id":69,"cartodb_id":4166,"city_id":141,"year":2015,"confidence":true,"notes":"","date_convert":"2015-12-03","city":"Newport","country":"United Kingdom","pres_sos":"John Forbes Kerry","position":"SOS","new_region":"Western Europe","remarks":"Met with President Nicos Anastasiades, Foreign Minister Ioannis Kasoulides, Turkish Cypriot leader Mustafa Akinci, and UN Special Adviser Espen Barth Eide.","distance":5714178.59054905}},{"type":"Feature","geometry":{"type":"Point","coordinates":[20.448922,44.786568]},"properties":{"pres_id":69,"cartodb_id":3362,"city_id":60,"year":2015,"confidence":false,"notes":"","date_convert":"2015-12-02,2015-12-03","city":"Belgrade","country":"Yugoslavia","pres_sos":"John Forbes Kerry","position":"SOS","new_region":"Eastern Europe and Central Asia","remarks":"Attended an OSCE Ministerial Meeting and a meeting of OSCE Minsk Group Co-Chair Countries. Met with Prime Minister Aleksandar Vucic and Ukrainian Foreign Minister Pavlo Klimkin.","distance":7597780.13347184}},{"type":"Feature","geometry":{"type":"Point","coordinates":[14.4378,50.075538]},"properties":{"pres_id":69,"cartodb_id":4165,"city_id":164,"year":2015,"confidence":true,"notes":"","date_convert":"2015-12-02","city":"Prague","country":"Czech Republic","pres_sos":"John Forbes Kerry","position":"SOS","new_region":"Eastern Europe and Central Asia","remarks":"Met with President Isa Mustafa.","distance":6906931.38064125}},{"type":"Feature","geometry":{"type":"Point","coordinates":[4.35171,50.85034]},"properties":{"pres_id":69,"cartodb_id":3361,"city_id":40,"year":2015,"confidence":false,"notes":"","date_convert":"2015-12-01,2015-12-02","city":"Brussels","country":"Belgium","pres_sos":"John Forbes Kerry","position":"SOS","new_region":"Western Europe","remarks":"Attended a NATO Foreign Ministers’ Meeting.","distance":6224186.6208891}},{"type":"Feature","geometry":{"type":"Point","coordinates":[2.352222,48.856614]},"properties":{"pres_id":69,"cartodb_id":4164,"city_id":6,"year":2015,"confidence":true,"notes":"","date_convert":"2015-12-01","city":"Paris ","country":"France","pres_sos":"John Forbes Kerry","position":"SOS","new_region":"Western Europe","remarks":"Attended the UN Climate Change Summit and met with Egyptian Foreign Minister Sameh Shoukry.","distance":6173365.60870437}},{"type":"Feature","geometry":{"type":"Point","coordinates":[2.352222,48.856614]},"properties":{"pres_id":70,"cartodb_id":3360,"city_id":6,"year":2015,"confidence":false,"notes":"","date_convert":"2015-11-30,2015-12-01","city":"Paris ","country":"France","pres_sos":"Obama","position":"President","new_region":"Western Europe","remarks":"Attended the UN Climate Change Conference.","distance":6173365.60870437}},{"type":"Feature","geometry":{"type":"Point","coordinates":[35.2034,31.9038]},"properties":{"pres_id":69,"cartodb_id":4163,"city_id":151,"year":2015,"confidence":true,"notes":"","date_convert":"2015-11-24","city":"Ramallah","country":"Palestinian Authority","pres_sos":"John Forbes Kerry","position":"SOS","new_region":"Middle East","remarks":"Met with President Mahmoud Abbas.","distance":9493820.46633906}},{"type":"Feature","geometry":{"type":"Point","coordinates":[35.21371,31.768319]},"properties":{"pres_id":69,"cartodb_id":4162,"city_id":51,"year":2015,"confidence":true,"notes":"","date_convert":"2015-11-24","city":"Jerusalem","country":"Israel","pres_sos":"John Forbes Kerry","position":"SOS","new_region":"Middle East","remarks":"Met with President Reuven Rivlin, Prime Minister Benjamin Netanyahu, and Opposition leader Yitzhak Herzog.","distance":9504946.68422716}},{"type":"Feature","geometry":{"type":"Point","coordinates":[-4.008256,5.359952]},"properties":{"pres_id":69,"cartodb_id":4161,"city_id":113,"year":2015,"confidence":true,"notes":"","date_convert":"2015-11-23","city":"Abidjan","country":"Cote d'Ivoire","pres_sos":"John Forbes Kerry","position":"SOS","new_region":"Africa","remarks":"Met with Crown Prince Mohammed bin Zayed and with the Foreign Ministers of the United Arab Emirates and Saudi Arabia.","distance":8177535.80350598}},{"type":"Feature","geometry":{"type":"Point","coordinates":[101.686855,3.139003]},"properties":{"pres_id":70,"cartodb_id":3359,"city_id":88,"year":2015,"confidence":false,"notes":"","date_convert":"2015-11-20,2015-11-22","city":"Kuala Lumpur","country":"Malaysia","pres_sos":"Obama","position":"President","new_region":"East Asia","remarks":"Attended ASEAN Summit Meeting.","distance":15339154.7233621}},{"type":"Feature","geometry":{"type":"Point","coordinates":[120.984219,14.599512]},"properties":{"pres_id":70,"cartodb_id":3358,"city_id":55,"year":2015,"confidence":false,"notes":"","date_convert":"2015-11-17,2015-11-20","city":"Manila ","country":"Philippines","pres_sos":"Obama","position":"President","new_region":"East Asia","remarks":"Attended the Trans-Pacific Partnership, Pacific Alliance, and APEC Summit Meetings.","distance":13774524.0168199}},{"type":"Feature","geometry":{"type":"Point","coordinates":[2.352222,48.856614]},"properties":{"pres_id":69,"cartodb_id":3357,"city_id":6,"year":2015,"confidence":false,"notes":"","date_convert":"2015-11-16,2015-11-17","city":"Paris ","country":"France","pres_sos":"John Forbes Kerry","position":"SOS","new_region":"Western Europe","remarks":"Met with President Francois Hollande and Foreign Minister Laurent Fabius.","distance":6173365.60870437}},{"type":"Feature","geometry":{"type":"Point","coordinates":[32.859742,39.933363]},"properties":{"pres_id":69,"cartodb_id":3356,"city_id":67,"year":2015,"confidence":false,"notes":"","date_convert":"2015-11-15,2015-11-16","city":"Ankara","country":"Turkey","pres_sos":"John Forbes Kerry","position":"SOS","new_region":"Middle East","remarks":"Attended the G-20 Leadership Summit.","distance":8732264.48658026}},{"type":"Feature","geometry":{"type":"Point","coordinates":[32.859742,39.933363]},"properties":{"pres_id":70,"cartodb_id":3355,"city_id":67,"year":2015,"confidence":false,"notes":"","date_convert":"2015-11-15,2015-11-16","city":"Ankara","country":"Turkey","pres_sos":"Obama","position":"President","new_region":"Middle East","remarks":"Attended the G-20 Economic Summit.","distance":8732264.48658026}},{"type":"Feature","geometry":{"type":"Point","coordinates":[16.373819,48.208174]},"properties":{"pres_id":69,"cartodb_id":3354,"city_id":107,"year":2015,"confidence":false,"notes":"","date_convert":"2015-11-13,2015-11-14","city":"Vienna","country":"Austria","pres_sos":"John Forbes Kerry","position":"SOS","new_region":"Western Europe","remarks":"Met with the Foreign Ministers of Saudi Arabia, Turkey, Russia, and Iran, and with UN Special Envoy for Syria Steffan de Mistura. Attended a meeting on Syria.","distance":7131414.35150101}},{"type":"Feature","geometry":{"type":"Point","coordinates":[10.181532,36.806495]},"properties":{"pres_id":69,"cartodb_id":4160,"city_id":82,"year":2015,"confidence":true,"notes":"","date_convert":"2015-11-13","city":"Tunis","country":"Tunisia","pres_sos":"John Forbes Kerry","position":"SOS","new_region":"Middle East","remarks":"Attended the U.S.-Tunisia Strategic Dialogue Plenary.","distance":7349758.57412766}},{"type":"Feature","geometry":{"type":"Point","coordinates":[-0.127758,51.507351]},"properties":{"pres_id":69,"cartodb_id":3353,"city_id":10,"year":2015,"confidence":false,"notes":"","date_convert":"2015-11-03,2015-11-04","city":"London ","country":"United Kingdom","pres_sos":"John Forbes Kerry","position":"SOS","new_region":"Western Europe","remarks":"Met with Foreign Secretary Philip Hammond.","distance":5905935.18935877}},{"type":"Feature","geometry":{"type":"Point","coordinates":[-6.26031,53.349805]},"properties":{"pres_id":69,"cartodb_id":4158,"city_id":30,"year":2015,"confidence":true,"notes":"","date_convert":"2015-11-03","city":"Dublin","country":"Ireland","pres_sos":"John Forbes Kerry","position":"SOS","new_region":"Western Europe","remarks":"Met with President Emomali Rahmon.","distance":5450245.75352642}},{"type":"Feature","geometry":{"type":"Point","coordinates":[35.006321,29.532052]},"properties":{"pres_id":69,"cartodb_id":4159,"city_id":96,"year":2015,"confidence":true,"notes":"","date_convert":"2015-11-03","city":"Aqaba","country":"Jordan","pres_sos":"John Forbes Kerry","position":"SOS","new_region":"Middle East","remarks":"Met with President Gurbanguly Berdimuhamedow.","distance":9662715.59190051}},{"type":"Feature","geometry":{"type":"Point","coordinates":[35.006321,29.532052]},"properties":{"pres_id":69,"cartodb_id":4157,"city_id":96,"year":2015,"confidence":true,"notes":"","date_convert":"2015-11-02","city":"Aqaba","country":"Jordan","pres_sos":"John Forbes Kerry","position":"SOS","new_region":"Middle East","remarks":"Met with President Nursultan Nazarbayev and attended the Fourth U.S. Kazakhstan Strategic Partnership Dialogue.","distance":9662715.59190051}},{"type":"Feature","geometry":{"type":"Point","coordinates":[12.496365,41.902783]},"properties":{"pres_id":69,"cartodb_id":4156,"city_id":8,"year":2015,"confidence":true,"notes":"","date_convert":"2015-11-01","city":"Rome","country":"Italy","pres_sos":"John Forbes Kerry","position":"SOS","new_region":"Western Europe","remarks":"Met with President Islam Karimov and the Foreign Ministers of Kazakhstan, Kyryzstan, Tajikistan, Turkmenistan, and Uzbekistan.","distance":7225571.0860885}},{"type":"Feature","geometry":{"type":"Point","coordinates":[-64.750878,32.308815]},"properties":{"pres_id":69,"cartodb_id":3352,"city_id":108,"year":2015,"confidence":false,"notes":"","date_convert":"2015-10-31,2015-11-01","city":"Bermuda","country":"United Kingdom","pres_sos":"John Forbes Kerry","position":"SOS","new_region":"East Asia","remarks":"Attended the dedication of a new Embassy compound, Met with President Almazbek Atambaev and Foreign Minister Erlan Abdyldaev. Addressed the American University of Central Asia.","distance":1337679.46997041}},{"type":"Feature","geometry":{"type":"Point","coordinates":[16.373819,48.208174]},"properties":{"pres_id":69,"cartodb_id":3351,"city_id":107,"year":2015,"confidence":false,"notes":"","date_convert":"2015-10-29,2015-10-31","city":"Vienna","country":"Austria","pres_sos":"John Forbes Kerry","position":"SOS","new_region":"Western Europe","remarks":"Met with Austrian Foreign Minister Sebastian Kurz, UN Special Envoy for Syria Steffan de Mistura, and the Foreign Ministers of Iran, Russia, Saudi Arabia, and Turkey. Attended a meeting on Syria.","distance":7131414.35150101}},{"type":"Feature","geometry":{"type":"Point","coordinates":[46.675296,24.713552]},"properties":{"pres_id":69,"cartodb_id":4155,"city_id":53,"year":2015,"confidence":true,"notes":"","date_convert":"2015-10-24","city":"Riyadh","country":"Saudi Arabia","pres_sos":"John Forbes Kerry","position":"SOS","new_region":"Middle East","remarks":"Met with King Salman, Foreign Minister Adel al-Jubeir, Crown Prince Mohammed bin Nayef, and Deputy Crown Prince Mohammed bin Salman.","distance":10844923.8409589}},{"type":"Feature","geometry":{"type":"Point","coordinates":[16.373819,48.208174]},"properties":{"pres_id":69,"cartodb_id":4154,"city_id":107,"year":2015,"confidence":true,"notes":"","date_convert":"2015-10-23","city":"Vienna","country":"Austria","pres_sos":"John Forbes Kerry","position":"SOS","new_region":"Western Europe","remarks":"Met with Quartet representatives and the Foreign Ministers of Russia, Turkey, and Saudi Arabia.","distance":7131414.35150101}},{"type":"Feature","geometry":{"type":"Point","coordinates":[13.404954,52.520007]},"properties":{"pres_id":69,"cartodb_id":4153,"city_id":149,"year":2015,"confidence":true,"notes":"","date_convert":"2015-10-22","city":"Berlin","country":"Germany","pres_sos":"John Forbes Kerry","position":"SOS","new_region":"Western Europe","remarks":"Met with Foreign Minister Frank-Walter Steinmeier, Israeli Prime Minister Benjamin Netanyahu, and EU High Representative Federica Mogherini.","distance":6717976.71552502}},{"type":"Feature","geometry":{"type":"Point","coordinates":[-3.70379,40.416775]},"properties":{"pres_id":69,"cartodb_id":3350,"city_id":36,"year":2015,"confidence":false,"notes":"","date_convert":"2015-10-18,2015-10-19","city":"Madrid","country":"Spain","pres_sos":"John Forbes Kerry","position":"SOS","new_region":"Western Europe","remarks":"Met with King Felipe VI, President Mariano Rajoy,and Foreign Minister Jose Manuel Garcia-Margallo.","distance":6097632.31893352}},{"type":"Feature","geometry":{"type":"Point","coordinates":[2.352222,48.856614]},"properties":{"pres_id":69,"cartodb_id":4152,"city_id":6,"year":2015,"confidence":true,"notes":"","date_convert":"2015-10-18","city":"Paris ","country":"France","pres_sos":"John Forbes Kerry","position":"SOS","new_region":"Western Europe","remarks":"Addressed the UNESCO Executive Board.","distance":6173365.60870437}},{"type":"Feature","geometry":{"type":"Point","coordinates":[-99.133208,19.432608]},"properties":{"pres_id":69,"cartodb_id":3349,"city_id":61,"year":2015,"confidence":false,"notes":"","date_convert":"2015-10-16,2015-10-17","city":"Mexico, D.F.","country":"Mexico","pres_sos":"John Forbes Kerry","position":"SOS","new_region":"Latin America","remarks":"Commemorated World Food Day, visited the USA Pavilion at Malan EXPO 2015, and met with Foreign Minister Paolo Gentiloni.","distance":3023376.22099694}},{"type":"Feature","geometry":{"type":"Point","coordinates":[-72.307433,18.594395]},"properties":{"pres_id":69,"cartodb_id":4151,"city_id":105,"year":2015,"confidence":true,"notes":"","date_convert":"2015-10-06","city":"Port-au-Prince","country":"Haiti","pres_sos":"John Forbes Kerry","position":"SOS","new_region":"Latin America","remarks":"Met with President Michel Martelly.","distance":2305748.08327816}},{"type":"Feature","geometry":{"type":"Point","coordinates":[10.181532,36.806495]},"properties":{"pres_id":69,"cartodb_id":4150,"city_id":82,"year":2015,"confidence":true,"notes":"","date_convert":"2015-10-05","city":"Tunis","country":"Tunisia","pres_sos":"John Forbes Kerry","position":"SOS","new_region":"Middle East","remarks":"Attended the second Our Ocean Conference.","distance":7349758.57412766}},{"type":"Feature","geometry":{"type":"Point","coordinates":[13.404954,52.520007]},"properties":{"pres_id":69,"cartodb_id":4149,"city_id":149,"year":2015,"confidence":true,"notes":"","date_convert":"2015-09-20","city":"Berlin","country":"Germany","pres_sos":"John Forbes Kerry","position":"SOS","new_region":"Western Europe","remarks":"Met with Foreign Minister Frank-Walter Steinmeier.","distance":6717976.71552502}},{"type":"Feature","geometry":{"type":"Point","coordinates":[-0.127758,51.507351]},"properties":{"pres_id":69,"cartodb_id":3348,"city_id":10,"year":2015,"confidence":false,"notes":"","date_convert":"2015-09-18,2015-09-19","city":"London ","country":"United Kingdom","pres_sos":"John Forbes Kerry","position":"SOS","new_region":"Western Europe","remarks":"Met with Foreign Secretary Philip Hammond and UAE Foreign Minister Abdullah bin Zayed.","distance":5905935.18935877}},{"type":"Feature","geometry":{"type":"Point","coordinates":[8.117883,49.32497]},"properties":{"pres_id":69,"cartodb_id":4148,"city_id":35,"year":2015,"confidence":true,"notes":"","date_convert":"2015-08-14","city":"Hambach Castle","country":"Germany","pres_sos":"John Forbes Kerry","position":"SOS","new_region":"Western Europe","remarks":"Formally inaugurated the U.S. Embassy. Met with Foreign Minister Bruno Eduardo Rodrigues Parilla.","distance":6538055.06911885}},{"type":"Feature","geometry":{"type":"Point","coordinates":[8.117883,49.32497]},"properties":{"pres_id":69,"cartodb_id":3347,"city_id":35,"year":2015,"confidence":false,"notes":"","date_convert":"2015-08-06,2015-08-08","city":"Hambach Castle","country":"Germany","pres_sos":"John Forbes Kerry","position":"SOS","new_region":"Western Europe","remarks":"Met with Deputy Prime Minister/Foreign Minister Pham Binh Minh and commemorated the 20th anniversary of the establishment of diplomatic relations.","distance":6538055.06911885}},{"type":"Feature","geometry":{"type":"Point","coordinates":[101.686855,3.139003]},"properties":{"pres_id":69,"cartodb_id":3346,"city_id":88,"year":2015,"confidence":false,"notes":"","date_convert":"2015-08-04,2015-08-06","city":"Kuala Lumpur","country":"Malaysia","pres_sos":"John Forbes Kerry","position":"SOS","new_region":"East Asia","remarks":"Attended the ASEAN Regional Forum.","distance":15339154.7233621}},{"type":"Feature","geometry":{"type":"Point","coordinates":[103.819836,1.352083]},"properties":{"pres_id":69,"cartodb_id":4147,"city_id":89,"year":2015,"confidence":true,"notes":"","date_convert":"2015-08-04","city":"Singapore","country":"Singapore","pres_sos":"John Forbes Kerry","position":"SOS","new_region":"East Asia","remarks":"Met with Prime Minister Lee Hsien Loung and Foreign Minister K. Shanmugan. Delivered an address at Singapore Management University.","distance":15538253.0699919}},{"type":"Feature","geometry":{"type":"Point","coordinates":[126.696145,37.917749]},"properties":{"pres_id":69,"cartodb_id":4146,"city_id":23,"year":2015,"confidence":true,"notes":"","date_convert":"2015-08-03","city":"Demilitarized Zone","country":"South Korea","pres_sos":"John Forbes Kerry","position":"SOS","new_region":"East Asia","remarks":"Met with the Foreign Ministers of the Gulf Cooperation Council.","distance":11132335.9785657}},{"type":"Feature","geometry":{"type":"Point","coordinates":[31.235712,30.04442]},"properties":{"pres_id":69,"cartodb_id":3345,"city_id":50,"year":2015,"confidence":false,"notes":"","date_convert":"2015-08-02,2015-08-03","city":"Cairo","country":"Egypt","pres_sos":"John Forbes Kerry","position":"SOS","new_region":"Middle East","remarks":"Co-chaired U.S.-Egypt Strategic Dialogue.","distance":9357491.22553302}},{"type":"Feature","geometry":{"type":"Point","coordinates":[35.2034,31.9038]},"properties":{"pres_id":70,"cartodb_id":4145,"city_id":151,"year":2015,"confidence":true,"notes":"","date_convert":"2015-07-28","city":"Ramallah","country":"Palestinian Authority","pres_sos":"Obama","position":"President","new_region":"Middle East","remarks":"Stopped en route from Addis Ababa, Ethiopia.","distance":9493820.46633906}},{"type":"Feature","geometry":{"type":"Point","coordinates":[38.757761,8.980603]},"properties":{"pres_id":70,"cartodb_id":3344,"city_id":137,"year":2015,"confidence":false,"notes":"","date_convert":"2015-07-26,2015-07-28","city":"Addis Ababa","country":"Ethiopia","pres_sos":"Obama","position":"President","new_region":"Africa","remarks":"Attended a meeting on South Sudan and Counterterrorism Issues and met with Prime Minister Hailemariam Desalegn (State dinner). Addressed the African Union.","distance":11537897.2292768}},{"type":"Feature","geometry":{"type":"Point","coordinates":[36.821946,-1.292066]},"properties":{"pres_id":70,"cartodb_id":3343,"city_id":111,"year":2015,"confidence":false,"notes":"","date_convert":"2015-07-24,2015-07-26","city":"Nairobi","country":"Kenya","pres_sos":"Obama","position":"President","new_region":"Africa","remarks":"Attended Global Entrepreneurship Summit and met with President Uhuru Kenyatta. Attended a State dinner.","distance":12152391.6511335}},{"type":"Feature","geometry":{"type":"Point","coordinates":[35.2034,31.9038]},"properties":{"pres_id":70,"cartodb_id":4144,"city_id":151,"year":2015,"confidence":true,"notes":"","date_convert":"2015-07-24","city":"Ramallah","country":"Palestinian Authority","pres_sos":"Obama","position":"President","new_region":"Middle East","remarks":"Stopped en route to Nairobi, Kenya.","distance":9493820.46633906}},{"type":"Feature","geometry":{"type":"Point","coordinates":[16.373819,48.208174]},"properties":{"pres_id":69,"cartodb_id":3342,"city_id":107,"year":2015,"confidence":false,"notes":"","date_convert":"2015-06-26,2015-07-14","city":"Vienna","country":"Austria","pres_sos":"John Forbes Kerry","position":"SOS","new_region":"Western Europe","remarks":"Met with Iranian Foreign Minister Mohammad Javad Zarif and the Foreign Ministers of the P5+ 1. Negotiated Joint Comprehensive Plan of Action concerning Iran’s nuclear energy program.","distance":7131414.35150101}},{"type":"Feature","geometry":{"type":"Point","coordinates":[11.581981,48.135125]},"properties":{"pres_id":70,"cartodb_id":3339,"city_id":138,"year":2015,"confidence":false,"notes":"","date_convert":"2015-06-07,2015-06-08","city":"Munich ","country":"Germany","pres_sos":"Obama","position":"President","new_region":"Western Europe","remarks":"Attended the G-7 Summit Meeting.","distance":6824406.87912478}},{"type":"Feature","geometry":{"type":"Point","coordinates":[19.945086,50.064645]},"properties":{"pres_id":70,"cartodb_id":3340,"city_id":214,"year":2015,"confidence":false,"notes":"","date_convert":"2015-06-07,2015-06-08","city":"Krakow","country":"Poland","pres_sos":"Obama","position":"President","new_region":"Eastern Europe and Central Asia","remarks":"Attended the G-7 Summit Meeting.","distance":7247836.17782541}},{"type":"Feature","geometry":{"type":"Point","coordinates":[68.785315,38.562321]},"properties":{"pres_id":70,"cartodb_id":3341,"city_id":280,"year":2015,"confidence":false,"notes":"","date_convert":"2015-06-07,2015-06-08","city":"Dushanbe","country":"Tajikistan","pres_sos":"Obama","position":"President","new_region":"Eastern Europe and Central Asia","remarks":"Attended the G-7 Summit Meeting.","distance":10727099.1281699}},{"type":"Feature","geometry":{"type":"Point","coordinates":[6.143158,46.204391]},"properties":{"pres_id":69,"cartodb_id":3338,"city_id":39,"year":2015,"confidence":false,"notes":"","date_convert":"2015-05-29,2015-05-30","city":"Geneva","country":"Switzerland","pres_sos":"John Forbes Kerry","position":"SOS","new_region":"Western Europe","remarks":"Met with Iranian Foreign Minister Mohammad Javad Zarif.","distance":6552418.20731486}},{"type":"Feature","geometry":{"type":"Point","coordinates":[-4.008256,5.359952]},"properties":{"pres_id":69,"cartodb_id":4143,"city_id":113,"year":2015,"confidence":true,"notes":"","date_convert":"2015-05-29","city":"Abidjan","country":"Cote d'Ivoire","pres_sos":"John Forbes Kerry","position":"SOS","new_region":"Africa","remarks":"Attended the inauguration of President Muhammedu Buhari.","distance":8177535.80350598}},{"type":"Feature","geometry":{"type":"Point","coordinates":[126.977969,37.566535]},"properties":{"pres_id":69,"cartodb_id":3337,"city_id":22,"year":2015,"confidence":false,"notes":"","date_convert":"2015-05-17,2015-05-18","city":"Seoul","country":"South Korea","pres_sos":"John Forbes Kerry","position":"SOS","new_region":"East Asia","remarks":"Met with Foreign Minister Yun Byung-Se and President Park Geun-Hye.","distance":11161346.1924669}},{"type":"Feature","geometry":{"type":"Point","coordinates":[116.407395,39.904211]},"properties":{"pres_id":69,"cartodb_id":3336,"city_id":24,"year":2015,"confidence":false,"notes":"","date_convert":"2015-05-16,2015-05-17","city":"Beijing","country":"China","pres_sos":"John Forbes Kerry","position":"SOS","new_region":"East Asia","remarks":"Met with Foreign Minister Wang Yi, Premier Li Keqiang, State Counselor Yang Jiechi, and President Xi Jingping.","distance":11144617.2862615}},{"type":"Feature","geometry":{"type":"Point","coordinates":[32.859742,39.933363]},"properties":{"pres_id":69,"cartodb_id":3335,"city_id":67,"year":2015,"confidence":false,"notes":"","date_convert":"2015-05-12,2015-05-13","city":"Ankara","country":"Turkey","pres_sos":"John Forbes Kerry","position":"SOS","new_region":"Middle East","remarks":"Attended a NATO Foreign Ministers Meeting.","distance":8732264.48658026}},{"type":"Feature","geometry":{"type":"Point","coordinates":[103.819836,1.352083]},"properties":{"pres_id":69,"cartodb_id":4142,"city_id":89,"year":2015,"confidence":true,"notes":"","date_convert":"2015-05-12","city":"Singapore","country":"Singapore","pres_sos":"John Forbes Kerry","position":"SOS","new_region":"East Asia","remarks":"Met with President Vladimir Putin and Foreign Minister Sergei Lavrov.","distance":15538253.0699919}},{"type":"Feature","geometry":{"type":"Point","coordinates":[2.352222,48.856614]},"properties":{"pres_id":69,"cartodb_id":4141,"city_id":6,"year":2015,"confidence":true,"notes":"","date_convert":"2015-05-08","city":"Paris ","country":"France","pres_sos":"John Forbes Kerry","position":"SOS","new_region":"Western Europe","remarks":"Attended ceremonies commemorating the 70th anniversary of VE-Day, Met with Foreign Minister Laurent Fabius and with the Gulf Cooperation Council Foreign Ministers.","distance":6173365.60870437}},{"type":"Feature","geometry":{"type":"Point","coordinates":[46.675296,24.713552]},"properties":{"pres_id":69,"cartodb_id":3334,"city_id":53,"year":2015,"confidence":false,"notes":"","date_convert":"2015-05-06,2015-05-07","city":"Riyadh","country":"Saudi Arabia","pres_sos":"John Forbes Kerry","position":"SOS","new_region":"Middle East","remarks":"Met with King Salman, Crown Prince Mohammed bin Nayef, Foreign Minister Adel al-Jubeir, and Yemeni President Abd Rabbuh Mansur Hadi.","distance":10844923.8409589}},{"type":"Feature","geometry":{"type":"Point","coordinates":[126.696145,37.917749]},"properties":{"pres_id":69,"cartodb_id":4140,"city_id":23,"year":2015,"confidence":true,"notes":"","date_convert":"2015-05-06","city":"Demilitarized Zone","country":"South Korea","pres_sos":"John Forbes Kerry","position":"SOS","new_region":"East Asia","remarks":"President Ismail Omar Guelleh and Foreign Minister Mahamoud Ali Youssouf.","distance":11132335.9785657}},{"type":"Feature","geometry":{"type":"Point","coordinates":[-99.133208,19.432608]},"properties":{"pres_id":69,"cartodb_id":3333,"city_id":61,"year":2015,"confidence":false,"notes":"","date_convert":"2015-05-05,2015-05-06","city":"Mexico, D.F.","country":"Mexico","pres_sos":"John Forbes Kerry","position":"SOS","new_region":"Latin America","remarks":"Met with President Hassan Sheikh Mahmoud, Prime Minister Omar Abdirashid Ali Sharmarke and regional leaders. Announced plans to re-establish a U.S. Embassy..","distance":3023376.22099694}},{"type":"Feature","geometry":{"type":"Point","coordinates":[36.821946,-1.292066]},"properties":{"pres_id":69,"cartodb_id":3332,"city_id":111,"year":2015,"confidence":false,"notes":"","date_convert":"2015-05-03,2015-05-05","city":"Nairobi","country":"Kenya","pres_sos":"John Forbes Kerry","position":"SOS","new_region":"Africa","remarks":"Met with President Uhuru Kenyatta and Chief Justice Willy Mutunga. Visited the Dadaab refugee camp.","distance":12152391.6511335}},{"type":"Feature","geometry":{"type":"Point","coordinates":[-106.424548,31.690364]},"properties":{"pres_id":69,"cartodb_id":3331,"city_id":2,"year":2015,"confidence":false,"notes":"","date_convert":"2015-05-02,2015-05-03","city":"Ciudad Juarez","country":"Mexico","pres_sos":"John Forbes Kerry","position":"SOS","new_region":"Latin America","remarks":"Met with President Maithripala Sirisena, Prime Minister Ranil Wikremesinghe, and Foreign Minister Mangala Samaraweera.","distance":2761122.24682703}},{"type":"Feature","geometry":{"type":"Point","coordinates":[114.164989,22.276156]},"properties":{"pres_id":69,"cartodb_id":4139,"city_id":54,"year":2015,"confidence":true,"notes":"","date_convert":"2015-04-24","city":"Hong Kong","country":"United Kingdom","pres_sos":"John Forbes Kerry","position":"SOS","new_region":"East Asia","remarks":"Attended the Arctic Council Ministerial meeting.","distance":13111274.106022}},{"type":"Feature","geometry":{"type":"Point","coordinates":[-0.127758,51.507351]},"properties":{"pres_id":69,"cartodb_id":3330,"city_id":10,"year":2015,"confidence":false,"notes":"","date_convert":"2015-04-14,2015-04-15","city":"London ","country":"United Kingdom","pres_sos":"John Forbes Kerry","position":"SOS","new_region":"Western Europe","remarks":"Attended the G-7 Foreign Ministers Meeting.","distance":5905935.18935877}},{"type":"Feature","geometry":{"type":"Point","coordinates":[-79.51987,8.982379]},"properties":{"pres_id":70,"cartodb_id":3329,"city_id":134,"year":2015,"confidence":false,"notes":"","date_convert":"2015-04-09,2015-04-11","city":"Panama City","country":"Panama","pres_sos":"Obama","position":"President","new_region":"Latin America","remarks":"Attended a Summit of the Americas meeting.","distance":3334966.59435672}},{"type":"Feature","geometry":{"type":"Point","coordinates":[-79.51987,8.982379]},"properties":{"pres_id":69,"cartodb_id":3328,"city_id":134,"year":2015,"confidence":false,"notes":"","date_convert":"2015-04-09,2015-04-10","city":"Panama City","country":"Panama","pres_sos":"John Forbes Kerry","position":"SOS","new_region":"Latin America","remarks":"Attended the Seventh Summit of the Americas.","distance":3334966.59435672}},{"type":"Feature","geometry":{"type":"Point","coordinates":[-76.809904,18.017874]},"properties":{"pres_id":70,"cartodb_id":3327,"city_id":4,"year":2015,"confidence":false,"notes":"","date_convert":"2015-04-08,2015-04-09","city":"Kingston","country":"Jamaica","pres_sos":"Obama","position":"President","new_region":"Latin America","remarks":"Attended a CARICOM meeting.","distance":2322147.35270557}},{"type":"Feature","geometry":{"type":"Point","coordinates":[33.629043,34.911182]},"properties":{"pres_id":69,"cartodb_id":3326,"city_id":124,"year":2015,"confidence":false,"notes":"","date_convert":"2015-03-27,2015-04-02","city":"Larnaca","country":"Cyprus","pres_sos":"John Forbes Kerry","position":"SOS","new_region":"Middle East","remarks":"Attended the P5 + 1 negotiations with Iran.","distance":9158191.23347043}},{"type":"Feature","geometry":{"type":"Point","coordinates":[-0.127758,51.507351]},"properties":{"pres_id":69,"cartodb_id":4138,"city_id":10,"year":2015,"confidence":true,"notes":"","date_convert":"2015-03-21","city":"London ","country":"United Kingdom","pres_sos":"John Forbes Kerry","position":"SOS","new_region":"Western Europe","remarks":"Met with the Foreign Ministers of France, Germany, and the United Kingdom, and with EU High Representative Federica Mogherini.","distance":5905935.18935877}},{"type":"Feature","geometry":{"type":"Point","coordinates":[33.629043,34.911182]},"properties":{"pres_id":69,"cartodb_id":3325,"city_id":124,"year":2015,"confidence":false,"notes":"","date_convert":"2015-03-15,2015-03-21","city":"Larnaca","country":"Cyprus","pres_sos":"John Forbes Kerry","position":"SOS","new_region":"Middle East","remarks":"Attended the P5 + 1 negotiations with Iran.","distance":9158191.23347043}},{"type":"Feature","geometry":{"type":"Point","coordinates":[-8.873068,52.712471]},"properties":{"pres_id":69,"cartodb_id":3324,"city_id":27,"year":2015,"confidence":false,"notes":"","date_convert":"2015-03-13,2015-03-15","city":"Shannon","country":"Ireland","pres_sos":"John Forbes Kerry","position":"SOS","new_region":"Western Europe","remarks":"Attended the Egypt Economic Development Conference.","distance":5294885.96462098}},{"type":"Feature","geometry":{"type":"Point","coordinates":[2.352222,48.856614]},"properties":{"pres_id":69,"cartodb_id":4137,"city_id":6,"year":2015,"confidence":true,"notes":"","date_convert":"2015-03-07","city":"Paris ","country":"France","pres_sos":"John Forbes Kerry","position":"SOS","new_region":"Western Europe","remarks":"Met with the Foreign Ministers of France, Germany, and the United Kingdom, and with EU High Representative Federica Mogherini.","distance":6173365.60870437}},{"type":"Feature","geometry":{"type":"Point","coordinates":[-0.127758,51.507351]},"properties":{"pres_id":69,"cartodb_id":4136,"city_id":10,"year":2015,"confidence":true,"notes":"","date_convert":"2015-03-06","city":"London ","country":"United Kingdom","pres_sos":"John Forbes Kerry","position":"SOS","new_region":"Western Europe","remarks":"Met with Gulf Cooperation Council Foreign Ministers.","distance":5905935.18935877}},{"type":"Feature","geometry":{"type":"Point","coordinates":[46.675296,24.713552]},"properties":{"pres_id":69,"cartodb_id":3323,"city_id":53,"year":2015,"confidence":false,"notes":"","date_convert":"2015-03-04,2015-03-06","city":"Riyadh","country":"Saudi Arabia","pres_sos":"John Forbes Kerry","position":"SOS","new_region":"Middle East","remarks":"Met with King Salman and Foreign Minister Saud al-Faisal and attended a meeting of Gulf Cooperation Council Foreign Ministers.","distance":10844923.8409589}},{"type":"Feature","geometry":{"type":"Point","coordinates":[6.91068,46.431221]},"properties":{"pres_id":69,"cartodb_id":3322,"city_id":275,"year":2015,"confidence":false,"notes":"","date_convert":"2015-03-02,2015-03-04","city":"Montreux","country":"Switzerland","pres_sos":"John Forbes Kerry","position":"SOS","new_region":"Western Europe","remarks":"Attended the 28th Session of the UN Human Rights Commission and met with Russian Foreign Minister Sergei Lavrov. Met with Iranian Foreign Minister Mohammed Javad Zarif in Montreux.","distance":6594619.02323093}},{"type":"Feature","geometry":{"type":"Point","coordinates":[6.143158,46.204391]},"properties":{"pres_id":69,"cartodb_id":3321,"city_id":39,"year":2015,"confidence":false,"notes":"","date_convert":"2015-03-02,2015-03-04","city":"Geneva","country":"Switzerland","pres_sos":"John Forbes Kerry","position":"SOS","new_region":"Western Europe","remarks":"Attended the 28th Session of the UN Human Rights Commission and met with Russian Foreign Minister Sergei Lavrov. Met with Iranian Foreign Minister Mohammed Javad Zarif in Montreux.","distance":6552418.20731486}},{"type":"Feature","geometry":{"type":"Point","coordinates":[6.143158,46.204391]},"properties":{"pres_id":69,"cartodb_id":3320,"city_id":39,"year":2015,"confidence":false,"notes":"","date_convert":"2015-02-23,2015-02-24","city":"Geneva","country":"Switzerland","pres_sos":"John Forbes Kerry","position":"SOS","new_region":"Western Europe","remarks":"Met with Iranian Foreign Minister Mohammed Javad Zarif.","distance":6552418.20731486}},{"type":"Feature","geometry":{"type":"Point","coordinates":[-0.127758,51.507351]},"properties":{"pres_id":69,"cartodb_id":3319,"city_id":10,"year":2015,"confidence":false,"notes":"","date_convert":"2015-02-21,2015-02-22","city":"London ","country":"United Kingdom","pres_sos":"John Forbes Kerry","position":"SOS","new_region":"Western Europe","remarks":"Met with Foreign Secretary Philip Hammond.","distance":5905935.18935877}},{"type":"Feature","geometry":{"type":"Point","coordinates":[11.581981,48.135125]},"properties":{"pres_id":69,"cartodb_id":3318,"city_id":138,"year":2015,"confidence":false,"notes":"","date_convert":"2015-02-06,2015-02-08","city":"Munich ","country":"Germany","pres_sos":"John Forbes Kerry","position":"SOS","new_region":"Western Europe","remarks":"Attended the 51st Munich Security Conference.","distance":6824406.87912478}},{"type":"Feature","geometry":{"type":"Point","coordinates":[101.686855,3.139003]},"properties":{"pres_id":69,"cartodb_id":3317,"city_id":88,"year":2015,"confidence":false,"notes":"","date_convert":"2015-02-05,2015-02-06","city":"Kuala Lumpur","country":"Malaysia","pres_sos":"John Forbes Kerry","position":"SOS","new_region":"East Asia","remarks":"Met with President Petro Poroshenko and Prime Minister Arseniy Yatsenyuk.","distance":15339154.7233621}},{"type":"Feature","geometry":{"type":"Point","coordinates":[46.675296,24.713552]},"properties":{"pres_id":70,"cartodb_id":4133,"city_id":53,"year":2015,"confidence":true,"notes":"","date_convert":"2015-01-27","city":"Riyadh","country":"Saudi Arabia","pres_sos":"Obama","position":"President","new_region":"Middle East","remarks":"Met with King Salman bin Abdel Aziz al-Saud and senior officials.","distance":10844923.8409589}},{"type":"Feature","geometry":{"type":"Point","coordinates":[35.2034,31.9038]},"properties":{"pres_id":70,"cartodb_id":4134,"city_id":151,"year":2015,"confidence":true,"notes":"","date_convert":"2015-01-27","city":"Ramallah","country":"Palestinian Authority","pres_sos":"Obama","position":"President","new_region":"Middle East","remarks":"Stopped while returning to Washington.","distance":9493820.46633906}},{"type":"Feature","geometry":{"type":"Point","coordinates":[46.675296,24.713552]},"properties":{"pres_id":69,"cartodb_id":4135,"city_id":53,"year":2015,"confidence":true,"notes":"","date_convert":"2015-01-27","city":"Riyadh","country":"Saudi Arabia","pres_sos":"John Forbes Kerry","position":"SOS","new_region":"Middle East","remarks":"Accompanied President Obama to offer condolences to King Salman bin Abd al Aziz bin Saud after the passing of King Abdullah.","distance":10844923.8409589}},{"type":"Feature","geometry":{"type":"Point","coordinates":[6.143158,46.204391]},"properties":{"pres_id":69,"cartodb_id":4132,"city_id":39,"year":2015,"confidence":true,"notes":"","date_convert":"2015-01-26","city":"Geneva","country":"Switzerland","pres_sos":"John Forbes Kerry","position":"SOS","new_region":"Western Europe","remarks":"Met with members of the U.S. Mission.","distance":6552418.20731486}},{"type":"Feature","geometry":{"type":"Point","coordinates":[77.209021,28.613939]},"properties":{"pres_id":70,"cartodb_id":3316,"city_id":78,"year":2015,"confidence":false,"notes":"","date_convert":"2015-01-24,2015-01-27","city":"New Delhi","country":"India","pres_sos":"Obama","position":"President","new_region":"South Asia","remarks":"Met with President Pranab Mukherjee and Prime Minister Narendra Modi.","distance":12050633.5178933}},{"type":"Feature","geometry":{"type":"Point","coordinates":[3.379206,6.524379]},"properties":{"pres_id":69,"cartodb_id":3315,"city_id":112,"year":2015,"confidence":false,"notes":"","date_convert":"2015-01-24,2015-01-25","city":"Lagos","country":"Nigeria","pres_sos":"John Forbes Kerry","position":"SOS","new_region":"Africa","remarks":"Met with President Goodluck Jonathan and presidential candidate Muhammedu Buhari.","distance":8734340.85428889}},{"type":"Feature","geometry":{"type":"Point","coordinates":[35.2034,31.9038]},"properties":{"pres_id":70,"cartodb_id":4131,"city_id":151,"year":2015,"confidence":true,"notes":"","date_convert":"2015-01-24","city":"Ramallah","country":"Palestinian Authority","pres_sos":"Obama","position":"President","new_region":"Middle East","remarks":"Stopped en route to India.","distance":9493820.46633906}},{"type":"Feature","geometry":{"type":"Point","coordinates":[39.208328,-6.792354]},"properties":{"pres_id":69,"cartodb_id":3314,"city_id":147,"year":2015,"confidence":false,"notes":"","date_convert":"2015-01-22,2015-01-24","city":"Dar es Salaam","country":"Tanzania","pres_sos":"John Forbes Kerry","position":"SOS","new_region":"Africa","remarks":"Attended the World Economic Forum.","distance":12751016.0740763}},{"type":"Feature","geometry":{"type":"Point","coordinates":[-0.127758,51.507351]},"properties":{"pres_id":69,"cartodb_id":4130,"city_id":10,"year":2015,"confidence":true,"notes":"","date_convert":"2015-01-22","city":"London ","country":"United Kingdom","pres_sos":"John Forbes Kerry","position":"SOS","new_region":"Western Europe","remarks":"Attended a meeting of the Counter-ISIL Coalition Small Group and met with Foreign Secretary Philip Hammond.","distance":5905935.18935877}},{"type":"Feature","geometry":{"type":"Point","coordinates":[2.352222,48.856614]},"properties":{"pres_id":69,"cartodb_id":4129,"city_id":6,"year":2015,"confidence":true,"notes":"","date_convert":"2015-01-16","city":"Paris ","country":"France","pres_sos":"John Forbes Kerry","position":"SOS","new_region":"Western Europe","remarks":"Met with President Francois Hollande, Foreign Minister Laurent Fabius, Mayor Anne Hidlago, and Iranian Foreign Minister Mohammed Javad Zarif.","distance":6173365.60870437}},{"type":"Feature","geometry":{"type":"Point","coordinates":[103.819836,1.352083]},"properties":{"pres_id":69,"cartodb_id":3313,"city_id":89,"year":2015,"confidence":false,"notes":"","date_convert":"2015-01-14,2015-01-15","city":"Singapore","country":"Singapore","pres_sos":"John Forbes Kerry","position":"SOS","new_region":"East Asia","remarks":"Met with President Rosen Plevneliev, Prime Minister Boyko Borissov, Foreign Minister Daniel Mitov, and British Foreign Secretary Phillp Hammond.","distance":15538253.0699919}},{"type":"Feature","geometry":{"type":"Point","coordinates":[6.143158,46.204391]},"properties":{"pres_id":69,"cartodb_id":4128,"city_id":39,"year":2015,"confidence":true,"notes":"","date_convert":"2015-01-14","city":"Geneva","country":"Switzerland","pres_sos":"John Forbes Kerry","position":"SOS","new_region":"Western Europe","remarks":"Met with UN Special Envoy for Syria Steffan de Mistura and Iranian Foreign Minister Mohammed Javad Zarif.","distance":6552418.20731486}},{"type":"Feature","geometry":{"type":"Point","coordinates":[73.093146,33.729388]},"properties":{"pres_id":69,"cartodb_id":3312,"city_id":79,"year":2015,"confidence":false,"notes":"","date_convert":"2015-01-12,2015-01-14","city":"Islamabad","country":"Pakistan","pres_sos":"John Forbes Kerry","position":"SOS","new_region":"South Asia","remarks":"Attended the Second U.S.-Pakistan Strategic Dialogue Ministerial meeting.","distance":11376644.2400773}},{"type":"Feature","geometry":{"type":"Point","coordinates":[78.008075,27.17667]},"properties":{"pres_id":69,"cartodb_id":3311,"city_id":77,"year":2015,"confidence":false,"notes":"","date_convert":"2015-01-11,2015-01-12","city":"Agra","country":"India","pres_sos":"John Forbes Kerry","position":"SOS","new_region":"South Asia","remarks":"Attended the Vibrant Gujerat Global Investors Summit.","distance":12227849.161562}},{"type":"Feature","geometry":{"type":"Point","coordinates":[11.581981,48.135125]},"properties":{"pres_id":69,"cartodb_id":4127,"city_id":138,"year":2015,"confidence":true,"notes":"","date_convert":"2015-01-10","city":"Munich ","country":"Germany","pres_sos":"John Forbes Kerry","position":"SOS","new_region":"Western Europe","remarks":"Met with Sultan Qaboos of Oman.","distance":6824406.87912478}},{"type":"Feature","geometry":{"type":"Point","coordinates":[-0.127758,51.507351]},"properties":{"pres_id":69,"cartodb_id":4126,"city_id":10,"year":2014,"confidence":true,"notes":"","date_convert":"2014-12-16","city":"London ","country":"United Kingdom","pres_sos":"John Forbes Kerry","position":"SOS","new_region":"Western Europe","remarks":"Met with the Arab League Special Committee and with Quartet Representative Tony Blair.","distance":5905935.18935877}},{"type":"Feature","geometry":{"type":"Point","coordinates":[2.352222,48.856614]},"properties":{"pres_id":69,"cartodb_id":4125,"city_id":6,"year":2014,"confidence":true,"notes":"","date_convert":"2014-12-15","city":"Paris ","country":"France","pres_sos":"John Forbes Kerry","position":"SOS","new_region":"Western Europe","remarks":"Met with the EU3 Foreign Ministers.","distance":6173365.60870437}},{"type":"Feature","geometry":{"type":"Point","coordinates":[12.496365,41.902783]},"properties":{"pres_id":69,"cartodb_id":3310,"city_id":8,"year":2014,"confidence":false,"notes":"","date_convert":"2014-12-14,2014-12-15","city":"Rome","country":"Italy","pres_sos":"John Forbes Kerry","position":"SOS","new_region":"Western Europe","remarks":"Met with Russian Foreign Minister Sergei Lavrov and Israeli Prime Minister Benjamin Netanyahu.","distance":7225571.0860885}},{"type":"Feature","geometry":{"type":"Point","coordinates":[-74.072092,4.710989]},"properties":{"pres_id":69,"cartodb_id":4124,"city_id":17,"year":2014,"confidence":true,"notes":"","date_convert":"2014-12-12","city":"Bogota","country":"Colombia","pres_sos":"John Forbes Kerry","position":"SOS","new_region":"Latin America","remarks":"Met with President Juan Manuel Santos and Foreign Minister Maria Angela Holguin.","distance":3814273.6958985}},{"type":"Feature","geometry":{"type":"Point","coordinates":[-0.127758,51.507351]},"properties":{"pres_id":69,"cartodb_id":3309,"city_id":10,"year":2014,"confidence":false,"notes":"","date_convert":"2014-12-04,2014-12-05","city":"London ","country":"United Kingdom","pres_sos":"John Forbes Kerry","position":"SOS","new_region":"Western Europe","remarks":"Attended the Conference on Afghanistan.","distance":5905935.18935877}},{"type":"Feature","geometry":{"type":"Point","coordinates":[100.501765,13.756331]},"properties":{"pres_id":69,"cartodb_id":3308,"city_id":76,"year":2014,"confidence":false,"notes":"","date_convert":"2014-12-03,2014-12-04","city":"Bangkok","country":"Thailand","pres_sos":"John Forbes Kerry","position":"SOS","new_region":"East Asia","remarks":"Attended an OSCE Ministerial Meeting.","distance":14155005.7767391}},{"type":"Feature","geometry":{"type":"Point","coordinates":[4.35171,50.85034]},"properties":{"pres_id":69,"cartodb_id":3307,"city_id":40,"year":2014,"confidence":false,"notes":"","date_convert":"2014-12-01,2014-12-03","city":"Brussels","country":"Belgium","pres_sos":"John Forbes Kerry","position":"SOS","new_region":"Western Europe","remarks":"Formally inaugurated the U.S. Embassy. Met with Foreign Minister Bruno Eduardo Rodrigues Parilla.","distance":6224186.6208891}},{"type":"Feature","geometry":{"type":"Point","coordinates":[16.373819,48.208174]},"properties":{"pres_id":69,"cartodb_id":3306,"city_id":107,"year":2014,"confidence":false,"notes":"","date_convert":"2014-11-20,2014-11-24","city":"Vienna","country":"Austria","pres_sos":"John Forbes Kerry","position":"SOS","new_region":"Western Europe","remarks":"Attended meetings with the P5+1 representatives, EU High Representative Ashton, and Iranian Foreign Minister Zarif.","distance":7131414.35150101}},{"type":"Feature","geometry":{"type":"Point","coordinates":[-0.127758,51.507351]},"properties":{"pres_id":69,"cartodb_id":3305,"city_id":10,"year":2014,"confidence":false,"notes":"","date_convert":"2014-11-18,2014-11-20","city":"London ","country":"United Kingdom","pres_sos":"John Forbes Kerry","position":"SOS","new_region":"Western Europe","remarks":"Attended EU/P5+1 negotiations with Iran.","distance":5905935.18935877}},{"type":"Feature","geometry":{"type":"Point","coordinates":[153.025124,-27.469771]},"properties":{"pres_id":70,"cartodb_id":3304,"city_id":139,"year":2014,"confidence":false,"notes":"","date_convert":"2014-11-15,2014-11-16","city":"Brisbane","country":"Australia","pres_sos":"Obama","position":"President","new_region":"Oceania","remarks":"Attended a G-20 Summit Meeting.","distance":15238362.6656375}},{"type":"Feature","geometry":{"type":"Point","coordinates":[96.07851,19.763306]},"properties":{"pres_id":70,"cartodb_id":3302,"city_id":140,"year":2014,"confidence":false,"notes":"","date_convert":"2014-11-12,2014-11-14","city":"Nay Pyi Taw","country":"Burma","pres_sos":"Obama","position":"President","new_region":"East Asia","remarks":"Attended a United States-Association of Southeast Asian Naations Summit Meeting.","distance":13454136.7669547}},{"type":"Feature","geometry":{"type":"Point","coordinates":[96.195132,16.866069]},"properties":{"pres_id":70,"cartodb_id":3303,"city_id":153,"year":2014,"confidence":false,"notes":"","date_convert":"2014-11-12,2014-11-14","city":"Rangoon","country":"Burma","pres_sos":"Obama","position":"President","new_region":"East Asia","remarks":"Attended a United States-Association of Southeast Asian Naations Summit Meeting.","distance":13775746.1131148}},{"type":"Feature","geometry":{"type":"Point","coordinates":[35.928372,31.945367]},"properties":{"pres_id":69,"cartodb_id":3301,"city_id":52,"year":2014,"confidence":false,"notes":"","date_convert":"2014-11-12,2014-11-13","city":"Amman ","country":"Jordan","pres_sos":"John Forbes Kerry","position":"SOS","new_region":"Middle East","remarks":"Met with King Abdullah II, Foreign Minister Nasser Judeh, and Palestinian Authority President Mahmoud Abbas. Attended a bilateral meeting of King Abdullah II and Israeli Prime Minister Benjamin Netanyahu.","distance":9539874.68041736}},{"type":"Feature","geometry":{"type":"Point","coordinates":[116.407395,39.904211]},"properties":{"pres_id":69,"cartodb_id":3300,"city_id":24,"year":2014,"confidence":false,"notes":"","date_convert":"2014-11-11,2014-11-12","city":"Beijing","country":"China","pres_sos":"John Forbes Kerry","position":"SOS","new_region":"East Asia","remarks":"Accompanied President Obama.","distance":11144617.2862615}},{"type":"Feature","geometry":{"type":"Point","coordinates":[116.407395,39.904211]},"properties":{"pres_id":70,"cartodb_id":3299,"city_id":24,"year":2014,"confidence":false,"notes":"","date_convert":"2014-11-10,2014-11-12","city":"Beijing","country":"China","pres_sos":"Obama","position":"President","new_region":"East Asia","remarks":"Attended the Asia Pacific Economic Cooperation CEO Summit Meeting and the Trans Pacific Partnership Leaders Meeting.","distance":11144617.2862615}},{"type":"Feature","geometry":{"type":"Point","coordinates":[11.581981,48.135125]},"properties":{"pres_id":69,"cartodb_id":3298,"city_id":138,"year":2014,"confidence":false,"notes":"","date_convert":"2014-11-09,2014-11-11","city":"Munich ","country":"Germany","pres_sos":"John Forbes Kerry","position":"SOS","new_region":"Western Europe","remarks":"Attended a trilateral meeting with EU High Representative Lady Catherine Ashton and Iranian Foreign Minister Mohammad Javad Zarif.","distance":6824406.87912478}},{"type":"Feature","geometry":{"type":"Point","coordinates":[116.407395,39.904211]},"properties":{"pres_id":69,"cartodb_id":3297,"city_id":24,"year":2014,"confidence":false,"notes":"","date_convert":"2014-11-07,2014-11-08","city":"Beijing","country":"China","pres_sos":"John Forbes Kerry","position":"SOS","new_region":"East Asia","remarks":"Attended the APEC Ministerial Meeting.","distance":11144617.2862615}},{"type":"Feature","geometry":{"type":"Point","coordinates":[2.352222,48.856614]},"properties":{"pres_id":69,"cartodb_id":3296,"city_id":6,"year":2014,"confidence":false,"notes":"","date_convert":"2014-11-04,2014-11-06","city":"Paris ","country":"France","pres_sos":"John Forbes Kerry","position":"SOS","new_region":"Western Europe","remarks":"Met with Foreign Minister Laurent Fabius, Jordanian Foreign Minister Nasser Judeh and Quartet Representative Tony Blair.","distance":6173365.60870437}},{"type":"Feature","geometry":{"type":"Point","coordinates":[-75.697193,45.42153]},"properties":{"pres_id":69,"cartodb_id":4122,"city_id":1,"year":2014,"confidence":true,"notes":"","date_convert":"2014-10-28","city":"Ottawa","country":"Canada","pres_sos":"John Forbes Kerry","position":"SOS","new_region":"Canada","remarks":"Met with Prime Minister Stephen Harper and Foreign Minister John Baird.","distance":735088.944328151}},{"type":"Feature","geometry":{"type":"Point","coordinates":[13.404954,52.520007]},"properties":{"pres_id":69,"cartodb_id":3295,"city_id":149,"year":2014,"confidence":false,"notes":"","date_convert":"2014-10-21,2014-10-22","city":"Berlin","country":"Germany","pres_sos":"John Forbes Kerry","position":"SOS","new_region":"Western Europe","remarks":"Met with Chancellor Angela Merkel and Foreign Minister Frank-Walter Steinmeier.","distance":6717976.71552502}},{"type":"Feature","geometry":{"type":"Point","coordinates":[106.822745,-6.174465]},"properties":{"pres_id":69,"cartodb_id":3294,"city_id":161,"year":2014,"confidence":false,"notes":"","date_convert":"2014-10-20,2014-10-21","city":"Jakarta","country":"Indonesia","pres_sos":"John Forbes Kerry","position":"SOS","new_region":"East Asia","remarks":"Attended the inauguration of Joko Widodo.","distance":16354374.2823662}},{"type":"Feature","geometry":{"type":"Point","coordinates":[16.373819,48.208174]},"properties":{"pres_id":69,"cartodb_id":4121,"city_id":107,"year":2014,"confidence":true,"notes":"","date_convert":"2014-10-15","city":"Vienna","country":"Austria","pres_sos":"John Forbes Kerry","position":"SOS","new_region":"Western Europe","remarks":"Trilateral meeting with EU High Representative Lady Catherine Ashton and Iranian Foreign Minister Mohammad Javad Zarif.","distance":7131414.35150101}},{"type":"Feature","geometry":{"type":"Point","coordinates":[2.352222,48.856614]},"properties":{"pres_id":69,"cartodb_id":3293,"city_id":6,"year":2014,"confidence":false,"notes":"","date_convert":"2014-10-13,2014-10-14","city":"Paris ","country":"France","pres_sos":"John Forbes Kerry","position":"SOS","new_region":"Western Europe","remarks":"Met with Foreign Minister Laurent Fabius, Russian Foreign Minister Sergei Lavrov, and Libyan Foreign Minister Mohammed al-Dairi.","distance":6173365.60870437}},{"type":"Feature","geometry":{"type":"Point","coordinates":[31.235712,30.04442]},"properties":{"pres_id":69,"cartodb_id":3292,"city_id":50,"year":2014,"confidence":false,"notes":"","date_convert":"2014-10-12,2014-10-13","city":"Cairo","country":"Egypt","pres_sos":"John Forbes Kerry","position":"SOS","new_region":"Middle East","remarks":"Attended the Gaza Donors Conference.","distance":9357491.22553302}},{"type":"Feature","geometry":{"type":"Point","coordinates":[2.352222,48.856614]},"properties":{"pres_id":69,"cartodb_id":3291,"city_id":6,"year":2014,"confidence":false,"notes":"","date_convert":"2014-09-14,2014-09-15","city":"Paris ","country":"France","pres_sos":"John Forbes Kerry","position":"SOS","new_region":"Western Europe","remarks":"Attended the International Conference on Peace and Security in Iraq.","distance":6173365.60870437}},{"type":"Feature","geometry":{"type":"Point","coordinates":[31.235712,30.04442]},"properties":{"pres_id":69,"cartodb_id":3290,"city_id":50,"year":2014,"confidence":false,"notes":"","date_convert":"2014-09-13,2014-09-14","city":"Cairo","country":"Egypt","pres_sos":"John Forbes Kerry","position":"SOS","new_region":"Middle East","remarks":"Met with President Abdel Fattah al-Sisi, Foreign Minister Sameh Shoukry, and Arab League Secretary-General Nabil al-Araby.","distance":9357491.22553302}},{"type":"Feature","geometry":{"type":"Point","coordinates":[32.859742,39.933363]},"properties":{"pres_id":69,"cartodb_id":3289,"city_id":67,"year":2014,"confidence":false,"notes":"","date_convert":"2014-09-12,2014-09-13","city":"Ankara","country":"Turkey","pres_sos":"John Forbes Kerry","position":"SOS","new_region":"Middle East","remarks":"Met with President Recep Tayyip Erdogan, Prime Minister Ahmed Davutoglu, and Foreign Minister Mevlut Cavusoglu.","distance":8732264.48658026}},{"type":"Feature","geometry":{"type":"Point","coordinates":[39.237551,21.285407]},"properties":{"pres_id":69,"cartodb_id":3288,"city_id":120,"year":2014,"confidence":false,"notes":"","date_convert":"2014-09-11,2014-09-12","city":"Jeddah","country":"Saudi Arabia","pres_sos":"John Forbes Kerry","position":"SOS","new_region":"Middle East","remarks":"Met with King Abdullah, attended a meeting of the Gulf Cooperation Council and Regional Partners, and met with representatives of the Organization of the Islamic Conference.","distance":10609802.5822191}},{"type":"Feature","geometry":{"type":"Point","coordinates":[35.928372,31.945367]},"properties":{"pres_id":69,"cartodb_id":3287,"city_id":52,"year":2014,"confidence":false,"notes":"","date_convert":"2014-09-10,2014-09-11","city":"Amman ","country":"Jordan","pres_sos":"John Forbes Kerry","position":"SOS","new_region":"Middle East","remarks":"Met with King Abdullah II.","distance":9539874.68041736}},{"type":"Feature","geometry":{"type":"Point","coordinates":[23.727539,37.98381]},"properties":{"pres_id":69,"cartodb_id":4120,"city_id":68,"year":2014,"confidence":true,"notes":"","date_convert":"2014-09-10","city":"Athens","country":"Greece","pres_sos":"John Forbes Kerry","position":"SOS","new_region":"Western Europe","remarks":"Met with President Fuad Masum, Prime Minister Haidar al-Abadi, Foreign Minister Ibrahim al-Ja’fari, and Council of Representatives Speaker Salim al-Jabouri.","distance":8261389.07774098}},{"type":"Feature","geometry":{"type":"Point","coordinates":[-3.179266,51.481584]},"properties":{"pres_id":69,"cartodb_id":3286,"city_id":323,"year":2014,"confidence":false,"notes":"","date_convert":"2014-09-04,2014-09-05","city":"Cardiff","country":"United Kingdom","pres_sos":"John Forbes Kerry","position":"SOS","new_region":"Western Europe","remarks":"Accompanied President Obama to the NATO Summit Meeting.","distance":5705403.38900866}},{"type":"Feature","geometry":{"type":"Point","coordinates":[-2.997664,51.584151]},"properties":{"pres_id":69,"cartodb_id":3285,"city_id":141,"year":2014,"confidence":false,"notes":"","date_convert":"2014-09-04,2014-09-05","city":"Newport","country":"United Kingdom","pres_sos":"John Forbes Kerry","position":"SOS","new_region":"Western Europe","remarks":"Accompanied President Obama to the NATO Summit Meeting.","distance":5714178.59054905}},{"type":"Feature","geometry":{"type":"Point","coordinates":[-3.179266,51.481584]},"properties":{"pres_id":70,"cartodb_id":3284,"city_id":323,"year":2014,"confidence":false,"notes":"","date_convert":"2014-09-03,2014-09-05","city":"Cardiff","country":"United Kingdom","pres_sos":"Obama","position":"President","new_region":"Western Europe","remarks":"Attended a NATO Summit Meeting. Also visited Stonehenge.","distance":5705403.38900866}},{"type":"Feature","geometry":{"type":"Point","coordinates":[-2.997664,51.584151]},"properties":{"pres_id":70,"cartodb_id":3283,"city_id":141,"year":2014,"confidence":false,"notes":"","date_convert":"2014-09-03,2014-09-05","city":"Newport","country":"United Kingdom","pres_sos":"Obama","position":"President","new_region":"Western Europe","remarks":"Attended a NATO Summit Meeting. Also visited Stonehenge.","distance":5714178.59054905}},{"type":"Feature","geometry":{"type":"Point","coordinates":[24.753575,59.436961]},"properties":{"pres_id":70,"cartodb_id":4119,"city_id":142,"year":2014,"confidence":true,"notes":"","date_convert":"2014-09-03","city":"Tallinn","country":"Estonia","pres_sos":"Obama","position":"President","new_region":"Eastern Europe and Central Asia","remarks":"Met with President Toomas Ilves and Prime Minister Taavi Roivas.","distance":6969024.66872039}},{"type":"Feature","geometry":{"type":"Point","coordinates":[114.164989,22.276156]},"properties":{"pres_id":69,"cartodb_id":4118,"city_id":54,"year":2014,"confidence":true,"notes":"","date_convert":"2014-08-13","city":"Hong Kong","country":"United Kingdom","pres_sos":"John Forbes Kerry","position":"SOS","new_region":"East Asia","remarks":"Met with Governor General Frank Kabui and Prime Minister Gordon Lilo. Attended wreath-laying ceremonies at the Guadalcanal American Memorial and the Solomons Scouts and Coastwatchers Memorial.","distance":13111274.106022}},{"type":"Feature","geometry":{"type":"Point","coordinates":[151.209295,-33.86882]},"properties":{"pres_id":69,"cartodb_id":3282,"city_id":118,"year":2014,"confidence":false,"notes":"","date_convert":"2014-08-11,2014-08-13","city":"Sydney","country":"Australia","pres_sos":"John Forbes Kerry","position":"SOS","new_region":"Oceania","remarks":"Attended the Australia-U.S. Ministerial Consultations.","distance":15700189.5310154}},{"type":"Feature","geometry":{"type":"Point","coordinates":[96.195132,16.866069]},"properties":{"pres_id":69,"cartodb_id":3281,"city_id":153,"year":2014,"confidence":false,"notes":"","date_convert":"2014-08-09,2014-08-10","city":"Rangoon","country":"Burma","pres_sos":"John Forbes Kerry","position":"SOS","new_region":"East Asia","remarks":"Attended the U.S.-ASEAN and Lower Mekong Initiatives, the ASEAN Regional Forum, and the East Asia Summit ministerial meetings.","distance":13775746.1131148}},{"type":"Feature","geometry":{"type":"Point","coordinates":[96.07851,19.763306]},"properties":{"pres_id":69,"cartodb_id":3280,"city_id":140,"year":2014,"confidence":false,"notes":"","date_convert":"2014-08-09,2014-08-10","city":"Nay Pyi Taw","country":"Burma","pres_sos":"John Forbes Kerry","position":"SOS","new_region":"East Asia","remarks":"Attended the U.S.-ASEAN and Lower Mekong Initiatives, the ASEAN Regional Forum, and the East Asia Summit ministerial meetings.","distance":13454136.7669547}},{"type":"Feature","geometry":{"type":"Point","coordinates":[69.207486,34.555349]},"properties":{"pres_id":69,"cartodb_id":3279,"city_id":155,"year":2014,"confidence":false,"notes":"","date_convert":"2014-08-07,2014-08-08","city":"Kabul","country":"Afghanistan","pres_sos":"John Forbes Kerry","position":"SOS","new_region":"South Asia","remarks":"Met with President Hamid Karzai and presidential candidates Abdullah Abdullah and Ashraf Ghani.","distance":11144117.6008592}},{"type":"Feature","geometry":{"type":"Point","coordinates":[77.209021,28.613939]},"properties":{"pres_id":69,"cartodb_id":3278,"city_id":78,"year":2014,"confidence":false,"notes":"","date_convert":"2014-07-29,2014-08-01","city":"New Delhi","country":"India","pres_sos":"John Forbes Kerry","position":"SOS","new_region":"South Asia","remarks":"Attended the 5th U.S.-India Strategic Dialogue.","distance":12050633.5178933}},{"type":"Feature","geometry":{"type":"Point","coordinates":[2.352222,48.856614]},"properties":{"pres_id":69,"cartodb_id":3277,"city_id":6,"year":2014,"confidence":false,"notes":"","date_convert":"2014-07-25,2014-07-26","city":"Paris ","country":"France","pres_sos":"John Forbes Kerry","position":"SOS","new_region":"Western Europe","remarks":"Met with the Foreign Ministers of France, the United Kingdom, Germany, Italy, Qatar, and Turkey.","distance":6173365.60870437}},{"type":"Feature","geometry":{"type":"Point","coordinates":[31.235712,30.04442]},"properties":{"pres_id":69,"cartodb_id":3276,"city_id":50,"year":2014,"confidence":false,"notes":"","date_convert":"2014-07-24,2014-07-25","city":"Cairo","country":"Egypt","pres_sos":"John Forbes Kerry","position":"SOS","new_region":"Middle East","remarks":"Discussed the Gaza crisis with UN Secretary-General Ban Ki-Moon, Arab League Secretary-General Nabil al-Araby, President Abdel Fattah al-Sisi, and Foreign Minister Sameh Shoukry.","distance":9357491.22553302}},{"type":"Feature","geometry":{"type":"Point","coordinates":[35.2034,31.9038]},"properties":{"pres_id":69,"cartodb_id":4117,"city_id":151,"year":2014,"confidence":true,"notes":"","date_convert":"2014-07-23","city":"Ramallah","country":"Palestinian Authority","pres_sos":"John Forbes Kerry","position":"SOS","new_region":"Middle East","remarks":"Met with President Mahmoud Abbas.","distance":9493820.46633906}},{"type":"Feature","geometry":{"type":"Point","coordinates":[35.21371,31.768319]},"properties":{"pres_id":69,"cartodb_id":4116,"city_id":51,"year":2014,"confidence":true,"notes":"","date_convert":"2014-07-23","city":"Jerusalem","country":"Israel","pres_sos":"John Forbes Kerry","position":"SOS","new_region":"Middle East","remarks":"Met with UN Secretary-General Ban Ki-Moon and Prime Minister Benjamin Netanyahu.","distance":9504946.68422716}},{"type":"Feature","geometry":{"type":"Point","coordinates":[31.235712,30.04442]},"properties":{"pres_id":69,"cartodb_id":3275,"city_id":50,"year":2014,"confidence":false,"notes":"","date_convert":"2014-07-21,2014-07-23","city":"Cairo","country":"Egypt","pres_sos":"John Forbes Kerry","position":"SOS","new_region":"Middle East","remarks":"Discussed the Gaza crisis with UN Secretary-General Ban Ki-Moon, Arab League Secretary-General Nabil al-Araby, President Abdel Fattah al-Sisi, and Foreign Minister Sameh Shoukry.","distance":9357491.22553302}},{"type":"Feature","geometry":{"type":"Point","coordinates":[16.373819,48.208174]},"properties":{"pres_id":69,"cartodb_id":3274,"city_id":107,"year":2014,"confidence":false,"notes":"","date_convert":"2014-07-13,2014-07-15","city":"Vienna","country":"Austria","pres_sos":"John Forbes Kerry","position":"SOS","new_region":"Western Europe","remarks":"Met with Iranian Foreign Minister Javad Zarif and various P5+1 Foreign Ministers.","distance":7131414.35150101}},{"type":"Feature","geometry":{"type":"Point","coordinates":[69.207486,34.555349]},"properties":{"pres_id":69,"cartodb_id":3273,"city_id":155,"year":2014,"confidence":false,"notes":"","date_convert":"2014-07-11,2014-07-12","city":"Kabul","country":"Afghanistan","pres_sos":"John Forbes Kerry","position":"SOS","new_region":"South Asia","remarks":"Met with President Hamid Karzai, Afghan political leaders, and the head of the UN Assistance Mission.","distance":11144117.6008592}},{"type":"Feature","geometry":{"type":"Point","coordinates":[116.407395,39.904211]},"properties":{"pres_id":69,"cartodb_id":3272,"city_id":24,"year":2014,"confidence":false,"notes":"","date_convert":"2014-07-08,2014-07-10","city":"Beijing","country":"China","pres_sos":"John Forbes Kerry","position":"SOS","new_region":"East Asia","remarks":"Attended the Sixth Round of the U.S.-China Strategic and Economic Dialogue.","distance":11144617.2862615}},{"type":"Feature","geometry":{"type":"Point","coordinates":[-79.51987,8.982379]},"properties":{"pres_id":69,"cartodb_id":4115,"city_id":134,"year":2014,"confidence":true,"notes":"","date_convert":"2014-07-01","city":"Panama City","country":"Panama","pres_sos":"John Forbes Kerry","position":"SOS","new_region":"Latin America","remarks":"Attended the inauguration of President Juan Carlos Varela Rodriguez. Met with the Presidents of El Salvador, Guatemala, and Honduras.","distance":3334966.59435672}},{"type":"Feature","geometry":{"type":"Point","coordinates":[39.237551,21.285407]},"properties":{"pres_id":69,"cartodb_id":4114,"city_id":120,"year":2014,"confidence":true,"notes":"","date_convert":"2014-06-27","city":"Jeddah","country":"Saudi Arabia","pres_sos":"John Forbes Kerry","position":"SOS","new_region":"Middle East","remarks":"Met with King Abdullah bin Abdulaziz al-Saud and Syrian Opposition Coalition President Ahmad Jarba.","distance":10609802.5822191}},{"type":"Feature","geometry":{"type":"Point","coordinates":[2.352222,48.856614]},"properties":{"pres_id":69,"cartodb_id":3271,"city_id":6,"year":2014,"confidence":false,"notes":"","date_convert":"2014-06-26,2014-06-27","city":"Paris ","country":"France","pres_sos":"John Forbes Kerry","position":"SOS","new_region":"Western Europe","remarks":"Met with Foreign Minister Laurent Fabius and with the Foreign Ministers of Israel, Saudi Arabia, the United Arab Emirates, and Jordan.","distance":6173365.60870437}},{"type":"Feature","geometry":{"type":"Point","coordinates":[4.35171,50.85034]},"properties":{"pres_id":69,"cartodb_id":3270,"city_id":40,"year":2014,"confidence":false,"notes":"","date_convert":"2014-06-24,2014-06-26","city":"Brussels","country":"Belgium","pres_sos":"John Forbes Kerry","position":"SOS","new_region":"Western Europe","remarks":"Attended a NATO Foreign Ministers’ Meeting.","distance":6224186.6208891}},{"type":"Feature","geometry":{"type":"Point","coordinates":[44.00887,36.206293]},"properties":{"pres_id":69,"cartodb_id":3269,"city_id":274,"year":2014,"confidence":false,"notes":"","date_convert":"2014-06-23,2014-06-24","city":"Erbil ","country":"Iraq","pres_sos":"John Forbes Kerry","position":"SOS","new_region":"Middle East","remarks":"Met with President Nouri al-Maliki and Iraqi political leaders, and with Kurdistan regional leaders in Erbil.","distance":9714602.16955579}},{"type":"Feature","geometry":{"type":"Point","coordinates":[23.727539,37.98381]},"properties":{"pres_id":69,"cartodb_id":3268,"city_id":68,"year":2014,"confidence":false,"notes":"","date_convert":"2014-06-23,2014-06-24","city":"Athens","country":"Greece","pres_sos":"John Forbes Kerry","position":"SOS","new_region":"Western Europe","remarks":"Met with President Nouri al-Maliki and Iraqi political leaders, and with Kurdistan regional leaders in Erbil.","distance":8261389.07774098}},{"type":"Feature","geometry":{"type":"Point","coordinates":[31.235712,30.04442]},"properties":{"pres_id":69,"cartodb_id":4112,"city_id":50,"year":2014,"confidence":true,"notes":"","date_convert":"2014-06-22","city":"Cairo","country":"Egypt","pres_sos":"John Forbes Kerry","position":"SOS","new_region":"Middle East","remarks":"Met with President Abdel Fattah al-Sisi, Foreign Minister Sameh Shoukry, and Arab League Secretary-General Nabil al-Araby.","distance":9357491.22553302}},{"type":"Feature","geometry":{"type":"Point","coordinates":[35.928372,31.945367]},"properties":{"pres_id":69,"cartodb_id":4113,"city_id":52,"year":2014,"confidence":true,"notes":"","date_convert":"2014-06-22","city":"Amman ","country":"Jordan","pres_sos":"John Forbes Kerry","position":"SOS","new_region":"Middle East","remarks":"Met with Foreign Minister Nasser Judeh.","distance":9539874.68041736}},{"type":"Feature","geometry":{"type":"Point","coordinates":[-0.127758,51.507351]},"properties":{"pres_id":69,"cartodb_id":4111,"city_id":10,"year":2014,"confidence":true,"notes":"","date_convert":"2014-06-13","city":"London ","country":"United Kingdom","pres_sos":"John Forbes Kerry","position":"SOS","new_region":"Western Europe","remarks":"Attended the Global Summit to end Sexual Violence in Combat.","distance":5905935.18935877}},{"type":"Feature","geometry":{"type":"Point","coordinates":[2.352222,48.856614]},"properties":{"pres_id":69,"cartodb_id":3265,"city_id":6,"year":2014,"confidence":false,"notes":"","date_convert":"2014-06-05,2014-06-07","city":"Paris ","country":"France","pres_sos":"John Forbes Kerry","position":"SOS","new_region":"Western Europe","remarks":"Accompanied President Obama. Took part in commemorations of the 70th anniversary of the Normandy invasion.","distance":6173365.60870437}},{"type":"Feature","geometry":{"type":"Point","coordinates":[-0.876758,49.371216]},"properties":{"pres_id":69,"cartodb_id":3266,"city_id":31,"year":2014,"confidence":false,"notes":"","date_convert":"2014-06-05,2014-06-07","city":"Normandy","country":"France","pres_sos":"John Forbes Kerry","position":"SOS","new_region":"Western Europe","remarks":"Accompanied President Obama. Took part in commemorations of the 70th anniversary of the Normandy invasion.","distance":5933314.93173356}},{"type":"Feature","geometry":{"type":"Point","coordinates":[20.448922,44.786568]},"properties":{"pres_id":70,"cartodb_id":3263,"city_id":60,"year":2014,"confidence":false,"notes":"","date_convert":"2014-06-05,2014-06-06","city":"Belgrade","country":"Yugoslavia","pres_sos":"Obama","position":"President","new_region":"Eastern Europe and Central Asia","remarks":"Met with President Francois Hollande. Attended ceremonies commemorating the 70th anniversary of the Normandy landings. Discussed the Ukrainian situation with Russian President Vladimir Putin.","distance":7597780.13347184}},{"type":"Feature","geometry":{"type":"Point","coordinates":[-0.876758,49.371216]},"properties":{"pres_id":70,"cartodb_id":3264,"city_id":31,"year":2014,"confidence":false,"notes":"","date_convert":"2014-06-05,2014-06-06","city":"Normandy","country":"France","pres_sos":"Obama","position":"President","new_region":"Western Europe","remarks":"Met with President Francois Hollande. Attended ceremonies commemorating the 70th anniversary of the Normandy landings. Discussed the Ukrainian situation with Russian President Vladimir Putin.","distance":5933314.93173356}},{"type":"Feature","geometry":{"type":"Point","coordinates":[2.352222,48.856614]},"properties":{"pres_id":70,"cartodb_id":3261,"city_id":6,"year":2014,"confidence":false,"notes":"","date_convert":"2014-06-05,2014-06-06","city":"Paris ","country":"France","pres_sos":"Obama","position":"President","new_region":"Western Europe","remarks":"Met with President Francois Hollande. Attended ceremonies commemorating the 70th anniversary of the Normandy landings. Discussed the Ukrainian situation with Russian President Vladimir Putin.","distance":6173365.60870437}},{"type":"Feature","geometry":{"type":"Point","coordinates":[-75.697193,45.42153]},"properties":{"pres_id":70,"cartodb_id":3262,"city_id":1,"year":2014,"confidence":false,"notes":"","date_convert":"2014-06-05,2014-06-06","city":"Ottawa","country":"Canada","pres_sos":"Obama","position":"President","new_region":"Canada","remarks":"Met with President Francois Hollande. Attended ceremonies commemorating the 70th anniversary of the Normandy landings. Discussed the Ukrainian situation with Russian President Vladimir Putin.","distance":735088.944328151}},{"type":"Feature","geometry":{"type":"Point","coordinates":[4.35171,50.85034]},"properties":{"pres_id":70,"cartodb_id":3260,"city_id":40,"year":2014,"confidence":false,"notes":"","date_convert":"2014-06-04,2014-06-05","city":"Brussels","country":"Belgium","pres_sos":"Obama","position":"President","new_region":"Western Europe","remarks":"Met with King Philippe and Prime Minister Elio Di Rupo. Attended meetings of the G-7 leaders.","distance":6224186.6208891}},{"type":"Feature","geometry":{"type":"Point","coordinates":[21.012229,52.229676]},"properties":{"pres_id":69,"cartodb_id":3259,"city_id":143,"year":2014,"confidence":false,"notes":"","date_convert":"2014-06-03,2014-06-04","city":"Warsaw","country":"Poland","pres_sos":"John Forbes Kerry","position":"SOS","new_region":"Eastern Europe and Central Asia","remarks":"Accompanied President Obama. Signed a Framework Agreement on Innovation. Met with Ukrainian President-elect Petro Poroshenko.","distance":7185111.83832421}},{"type":"Feature","geometry":{"type":"Point","coordinates":[21.012229,52.229676]},"properties":{"pres_id":70,"cartodb_id":3258,"city_id":143,"year":2014,"confidence":false,"notes":"","date_convert":"2014-06-03,2014-06-04","city":"Warsaw","country":"Poland","pres_sos":"Obama","position":"President","new_region":"Eastern Europe and Central Asia","remarks":"Met with Prime Minister Bronislaw Komarowski. Attended a Solidarity Dinner and a Freedom Day commemoration.","distance":7185111.83832421}},{"type":"Feature","geometry":{"type":"Point","coordinates":[35.2034,31.9038]},"properties":{"pres_id":70,"cartodb_id":4109,"city_id":151,"year":2014,"confidence":false,"notes":"","date_convert":"2014-05-26","city":"Ramallah","country":"Palestinian Authority","pres_sos":"Obama","position":"President","new_region":"Middle East","remarks":"Stopped while returning to Washington.","distance":9493820.46633906}},{"type":"Feature","geometry":{"type":"Point","coordinates":[69.273567,34.944476]},"properties":{"pres_id":70,"cartodb_id":4108,"city_id":144,"year":2014,"confidence":true,"notes":"","date_convert":"2014-05-25","city":"Bagram","country":"Afghanistan","pres_sos":"Obama","position":"President","new_region":"South Asia","remarks":"Toured the Joint Operating Center and met with U.S. military personnel.","distance":11107849.5393746}},{"type":"Feature","geometry":{"type":"Point","coordinates":[-115.452262,32.624539]},"properties":{"pres_id":69,"cartodb_id":3257,"city_id":41,"year":2014,"confidence":false,"notes":"","date_convert":"2014-05-21,2014-05-22","city":"Mexicali","country":"Mexico","pres_sos":"John Forbes Kerry","position":"SOS","new_region":"Latin America","remarks":"Met with President Enrico Pena Nieto and Foreign Secretary Jose Antonio Meade. Attended a Joint Bilateral Forum on Higher Education, Innovation, and Research; a CleanTech Challenge Launch event, and a U.S.-Mexico CEO Dialogue dinner.","distance":3498795.32891188}},{"type":"Feature","geometry":{"type":"Point","coordinates":[-0.127758,51.507351]},"properties":{"pres_id":69,"cartodb_id":3256,"city_id":10,"year":2014,"confidence":false,"notes":"","date_convert":"2014-05-15,2014-05-16","city":"London ","country":"United Kingdom","pres_sos":"John Forbes Kerry","position":"SOS","new_region":"Western Europe","remarks":"Attended a meeting of the London 11 (Friends of the Syrian People) and the Syrian Opposition Coalition.","distance":5905935.18935877}},{"type":"Feature","geometry":{"type":"Point","coordinates":[-0.127758,51.507351]},"properties":{"pres_id":69,"cartodb_id":3255,"city_id":10,"year":2014,"confidence":false,"notes":"","date_convert":"2014-05-04,2014-05-05","city":"London ","country":"United Kingdom","pres_sos":"John Forbes Kerry","position":"SOS","new_region":"Western Europe","remarks":"Met with President Jose Eduardo dos Santos and Foreign Minister Georges Chikoli. Visited a GE facility.","distance":5905935.18935877}},{"type":"Feature","geometry":{"type":"Point","coordinates":[-76.809904,18.017874]},"properties":{"pres_id":69,"cartodb_id":3254,"city_id":4,"year":2014,"confidence":false,"notes":"","date_convert":"2014-05-03,2014-05-04","city":"Kingston","country":"Jamaica","pres_sos":"John Forbes Kerry","position":"SOS","new_region":"Latin America","remarks":"Met with Foreign Minister Raymond Tshibanda, participants in the Young Africa Leaders Initiative UN Special Representative Martin Kobler, and President Joseph Kabila.","distance":2322147.35270557}},{"type":"Feature","geometry":{"type":"Point","coordinates":[28.047305,-26.204103]},"properties":{"pres_id":69,"cartodb_id":4107,"city_id":148,"year":2014,"confidence":true,"notes":"","date_convert":"2014-05-02","city":"Johannesburg","country":"South Africa","pres_sos":"John Forbes Kerry","position":"SOS","new_region":"Africa","remarks":"Met with President Salva Kiir, civil society leaders and UNMISS representatives.","distance":13055642.7907229}},{"type":"Feature","geometry":{"type":"Point","coordinates":[38.757761,8.980603]},"properties":{"pres_id":69,"cartodb_id":3253,"city_id":137,"year":2014,"confidence":false,"notes":"","date_convert":"2014-04-30,2014-05-03","city":"Addis Ababa","country":"Ethiopia","pres_sos":"John Forbes Kerry","position":"SOS","new_region":"Africa","remarks":"Co-convened the 4th Session of the U.S.-AU High Level Dialogue. Met with Somali President Hassan Sheikh Mohamud.","distance":11537897.2292768}},{"type":"Feature","geometry":{"type":"Point","coordinates":[120.984219,14.599512]},"properties":{"pres_id":70,"cartodb_id":3252,"city_id":55,"year":2014,"confidence":true,"notes":"","date_convert":"2014-04-28,2014-04-29","city":"Manila ","country":"Philippines","pres_sos":"Obama","position":"President","new_region":"East Asia","remarks":"Met with President Benigno S. Aquino 3rd. Attended a wreath-laying ceremony at the American Manila Cemetery.","distance":13774524.0168199}},{"type":"Feature","geometry":{"type":"Point","coordinates":[101.686855,3.139003]},"properties":{"pres_id":70,"cartodb_id":3251,"city_id":88,"year":2014,"confidence":false,"notes":"","date_convert":"2014-04-26,2014-04-28","city":"Kuala Lumpur","country":"Malaysia","pres_sos":"Obama","position":"President","new_region":"East Asia","remarks":"Met with Prime Minister Najib Razak, toured the National Mosque and the Malaysian Global Innovation and Creativity Center.","distance":15339154.7233621}},{"type":"Feature","geometry":{"type":"Point","coordinates":[139.731094,35.709038]},"properties":{"pres_id":70,"cartodb_id":3250,"city_id":21,"year":2014,"confidence":false,"notes":"","date_convert":"2014-04-22,2014-04-25","city":"Tokyo","country":"Japan","pres_sos":"Obama","position":"President","new_region":"East Asia","remarks":"Met with Prime Minister Shinzo Abe and Emperor Akihito. Toured the National Museum of Emerging Science and Innovation. Toured the Meiji Jingu Shrine.","distance":10895520.6663545}},{"type":"Feature","geometry":{"type":"Point","coordinates":[6.143158,46.204391]},"properties":{"pres_id":69,"cartodb_id":3249,"city_id":39,"year":2014,"confidence":false,"notes":"","date_convert":"2014-04-16,2014-04-17","city":"Geneva","country":"Switzerland","pres_sos":"John Forbes Kerry","position":"SOS","new_region":"Western Europe","remarks":"Discussed the Ukrainian crisis with representatives of Russia, Ukraine, and the European Union. Discussed the Syrian crisis with Joint Special Representative Lakhdar Brahimi.","distance":6552418.20731486}},{"type":"Feature","geometry":{"type":"Point","coordinates":[-6.849813,33.97159]},"properties":{"pres_id":69,"cartodb_id":3248,"city_id":83,"year":2014,"confidence":false,"notes":"","date_convert":"2014-04-03,2014-04-04","city":"Rabat","country":"Morocco","pres_sos":"John Forbes Kerry","position":"SOS","new_region":"Middle East","remarks":"Co-chaired the U.S.-Morocco Strategic Dialogue.","distance":6155871.46030671}},{"type":"Feature","geometry":{"type":"Point","coordinates":[78.008075,27.17667]},"properties":{"pres_id":69,"cartodb_id":4106,"city_id":77,"year":2014,"confidence":true,"notes":"","date_convert":"2014-04-03","city":"Agra","country":"India","pres_sos":"John Forbes Kerry","position":"SOS","new_region":"South Asia","remarks":"Co-chaired the U.S.-Algeria Strategic Dialogue.","distance":12227849.161562}},{"type":"Feature","geometry":{"type":"Point","coordinates":[4.35171,50.85034]},"properties":{"pres_id":69,"cartodb_id":3247,"city_id":40,"year":2014,"confidence":false,"notes":"","date_convert":"2014-04-01,2014-04-02","city":"Brussels","country":"Belgium","pres_sos":"John Forbes Kerry","position":"SOS","new_region":"Western Europe","remarks":"Attended the NATO Foreign Ministerial Meeting and meetings of the NATO-Ukraine and NATO-Georgia Commissions. Co-chaired the 5th U.S.-EU Energy Council Meeting.","distance":6224186.6208891}},{"type":"Feature","geometry":{"type":"Point","coordinates":[35.21371,31.768319]},"properties":{"pres_id":69,"cartodb_id":3246,"city_id":51,"year":2014,"confidence":false,"notes":"","date_convert":"2014-03-31,2014-04-01","city":"Jerusalem","country":"Israel","pres_sos":"John Forbes Kerry","position":"SOS","new_region":"Middle East","remarks":"Met with Prime Minister Benjamin Netanyahu.","distance":9504946.68422716}},{"type":"Feature","geometry":{"type":"Point","coordinates":[35.2034,31.9038]},"properties":{"pres_id":69,"cartodb_id":4105,"city_id":151,"year":2014,"confidence":true,"notes":"","date_convert":"2014-03-31","city":"Ramallah","country":"Palestinian Authority","pres_sos":"John Forbes Kerry","position":"SOS","new_region":"Middle East","remarks":"Met with President Mahmoud Abbas.","distance":9493820.46633906}},{"type":"Feature","geometry":{"type":"Point","coordinates":[2.352222,48.856614]},"properties":{"pres_id":69,"cartodb_id":3245,"city_id":6,"year":2014,"confidence":false,"notes":"","date_convert":"2014-03-29,2014-03-30","city":"Paris ","country":"France","pres_sos":"John Forbes Kerry","position":"SOS","new_region":"Western Europe","remarks":"Met with Foreign Minister Laurent Fabius and Russian Foreign Minister Sergei Lavrov.","distance":6173365.60870437}},{"type":"Feature","geometry":{"type":"Point","coordinates":[35.2034,31.9038]},"properties":{"pres_id":70,"cartodb_id":4104,"city_id":151,"year":2014,"confidence":false,"notes":"","date_convert":"2014-03-29","city":"Ramallah","country":"Palestinian Authority","pres_sos":"Obama","position":"President","new_region":"Middle East","remarks":"Visited wounded U.S. military personnel.","distance":9493820.46633906}},{"type":"Feature","geometry":{"type":"Point","coordinates":[46.675296,24.713552]},"properties":{"pres_id":69,"cartodb_id":3244,"city_id":53,"year":2014,"confidence":false,"notes":"","date_convert":"2014-03-28,2014-03-29","city":"Riyadh","country":"Saudi Arabia","pres_sos":"John Forbes Kerry","position":"SOS","new_region":"Middle East","remarks":"Accompanied President Obama.","distance":10844923.8409589}},{"type":"Feature","geometry":{"type":"Point","coordinates":[46.675296,24.713552]},"properties":{"pres_id":70,"cartodb_id":3242,"city_id":53,"year":2014,"confidence":false,"notes":"","date_convert":"2014-03-28,2014-03-29","city":"Riyadh","country":"Saudi Arabia","pres_sos":"Obama","position":"President","new_region":"Middle East","remarks":"Met with King Abdullah bin Abdel Aziz al-Saud.","distance":10844923.8409589}},{"type":"Feature","geometry":{"type":"Point","coordinates":[-159.776702,-21.228663]},"properties":{"pres_id":70,"cartodb_id":3243,"city_id":303,"year":2014,"confidence":false,"notes":"","date_convert":"2014-03-28,2014-03-29","city":"Raratonga","country":"Cook Islands","pres_sos":"Obama","position":"President","new_region":"Oceania","remarks":"Met with King Abdullah bin Abdel Aziz al-Saud.","distance":10865258.3647575}},{"type":"Feature","geometry":{"type":"Point","coordinates":[12.496365,41.902783]},"properties":{"pres_id":69,"cartodb_id":3241,"city_id":8,"year":2014,"confidence":false,"notes":"","date_convert":"2014-03-27,2014-03-28","city":"Rome","country":"Italy","pres_sos":"John Forbes Kerry","position":"SOS","new_region":"Western Europe","remarks":"Accompanied President Obama.","distance":7225571.0860885}},{"type":"Feature","geometry":{"type":"Point","coordinates":[12.453389,41.902916]},"properties":{"pres_id":70,"cartodb_id":4103,"city_id":9,"year":2014,"confidence":false,"notes":"","date_convert":"2014-03-27","city":"Vatican City","country":"Vatican City","pres_sos":"Obama","position":"President","new_region":"Western Europe","remarks":"Audience with Pope Francis and a meeting with Secretary of State Cardinal Pietro Parolin.","distance":7222508.6001304}},{"type":"Feature","geometry":{"type":"Point","coordinates":[12.496365,41.902783]},"properties":{"pres_id":70,"cartodb_id":3240,"city_id":8,"year":2014,"confidence":false,"notes":"","date_convert":"2014-03-26,2014-03-28","city":"Rome","country":"Italy","pres_sos":"Obama","position":"President","new_region":"Western Europe","remarks":"Met with President Giorgio Napolitano and Prime Minister Matteo Renzi. Toured the Colosseum.","distance":7225571.0860885}},{"type":"Feature","geometry":{"type":"Point","coordinates":[35.928372,31.945367]},"properties":{"pres_id":69,"cartodb_id":4102,"city_id":52,"year":2014,"confidence":true,"notes":"","date_convert":"2014-03-26","city":"Amman ","country":"Jordan","pres_sos":"John Forbes Kerry","position":"SOS","new_region":"Middle East","remarks":"Met with King Abdullah II and Palestinian Authority President Mahmoud Abbas.","distance":9539874.68041736}},{"type":"Feature","geometry":{"type":"Point","coordinates":[3.423167,50.886895]},"properties":{"pres_id":70,"cartodb_id":3238,"city_id":145,"year":2014,"confidence":false,"notes":"","date_convert":"2014-03-25,2014-03-26","city":"Waregem","country":"Belgium","pres_sos":"Obama","position":"President","new_region":"Western Europe","remarks":"Attended a wreath-laying ceremony at the Flanders Field American Cemetery. Attended a meeting of the Council of the European Union.","distance":6162058.65242853}},{"type":"Feature","geometry":{"type":"Point","coordinates":[4.35171,50.85034]},"properties":{"pres_id":70,"cartodb_id":3239,"city_id":40,"year":2014,"confidence":false,"notes":"","date_convert":"2014-03-25,2014-03-26","city":"Brussels","country":"Belgium","pres_sos":"Obama","position":"President","new_region":"Western Europe","remarks":"Attended a wreath-laying ceremony at the Flanders Field American Cemetery. Attended a meeting of the Council of the European Union.","distance":6224186.6208891}},{"type":"Feature","geometry":{"type":"Point","coordinates":[12.496365,41.902783]},"properties":{"pres_id":69,"cartodb_id":4100,"city_id":8,"year":2014,"confidence":true,"notes":"","date_convert":"2014-03-25","city":"Rome","country":"Italy","pres_sos":"John Forbes Kerry","position":"SOS","new_region":"Western Europe","remarks":"Accompanied President Obama.","distance":7225571.0860885}},{"type":"Feature","geometry":{"type":"Point","coordinates":[12.453389,41.902916]},"properties":{"pres_id":69,"cartodb_id":4101,"city_id":9,"year":2014,"confidence":true,"notes":"","date_convert":"2014-03-25","city":"Vatican City","country":"Vatican City","pres_sos":"John Forbes Kerry","position":"SOS","new_region":"Western Europe","remarks":"Accompanied President Obama.","distance":7222508.6001304}},{"type":"Feature","geometry":{"type":"Point","coordinates":[4.3007,52.070498]},"properties":{"pres_id":70,"cartodb_id":3235,"city_id":71,"year":2014,"confidence":true,"notes":"","date_convert":"2014-03-24,2014-03-25","city":"The Hague","country":"Netherlands","pres_sos":"Obama","position":"President","new_region":"Western Europe","remarks":"Attended the World Forum the Nuclear Security Summit, and a G-7 meeting on the Ukrainian crisis. Met with King Willem-Alexander and President Nursultan Nazarbayev of Kazakhstan.","distance":6171471.9723063}},{"type":"Feature","geometry":{"type":"Point","coordinates":[35.928372,31.945367]},"properties":{"pres_id":70,"cartodb_id":3236,"city_id":52,"year":2014,"confidence":true,"notes":"","date_convert":"2014-03-24,2014-03-25","city":"Amman ","country":"Jordan","pres_sos":"Obama","position":"President","new_region":"Middle East","remarks":"Attended the World Forum the Nuclear Security Summit, and a G-7 meeting on the Ukrainian crisis. Met with King Willem-Alexander and President Nursultan Nazarbayev of Kazakhstan.","distance":9539874.68041736}},{"type":"Feature","geometry":{"type":"Point","coordinates":[34.781768,32.0853]},"properties":{"pres_id":69,"cartodb_id":3237,"city_id":75,"year":2014,"confidence":false,"notes":"","date_convert":"2014-03-24,2014-03-25","city":"Tel Aviv","country":"Israel","pres_sos":"John Forbes Kerry","position":"SOS","new_region":"Middle East","remarks":"Accompanied President Obama to a G-7 Leaders’ Meeting on the Ukrainian crisis.","distance":9451123.04028403}},{"type":"Feature","geometry":{"type":"Point","coordinates":[-0.127758,51.507351]},"properties":{"pres_id":69,"cartodb_id":4099,"city_id":10,"year":2014,"confidence":true,"notes":"","date_convert":"2014-03-14","city":"London ","country":"United Kingdom","pres_sos":"John Forbes Kerry","position":"SOS","new_region":"Western Europe","remarks":"Discussed the Ukrainian crisis with Russian Foreign Minister Sergei Lavrov.","distance":5905935.18935877}},{"type":"Feature","geometry":{"type":"Point","coordinates":[35.006321,29.532052]},"properties":{"pres_id":69,"cartodb_id":4098,"city_id":96,"year":2014,"confidence":true,"notes":"","date_convert":"2014-03-07","city":"Aqaba","country":"Jordan","pres_sos":"John Forbes Kerry","position":"SOS","new_region":"Middle East","remarks":"Met with King Abdullah II.","distance":9662715.59190051}},{"type":"Feature","geometry":{"type":"Point","coordinates":[12.496365,41.902783]},"properties":{"pres_id":69,"cartodb_id":3234,"city_id":8,"year":2014,"confidence":false,"notes":"","date_convert":"2014-03-05,2014-03-06","city":"Rome","country":"Italy","pres_sos":"John Forbes Kerry","position":"SOS","new_region":"Western Europe","remarks":"Met with Prime Minister Matteo Renzi and Foreign Minister Federica Mogherini. Attended a conference on International Support to Libya.","distance":7225571.0860885}},{"type":"Feature","geometry":{"type":"Point","coordinates":[2.352222,48.856614]},"properties":{"pres_id":69,"cartodb_id":4097,"city_id":6,"year":2014,"confidence":true,"notes":"","date_convert":"2014-03-05","city":"Paris ","country":"France","pres_sos":"John Forbes Kerry","position":"SOS","new_region":"Western Europe","remarks":"Attended the Budapest Memorandum Ministerial Meeting and a meeting of the International Support Group for Lebanon.","distance":6173365.60870437}},{"type":"Feature","geometry":{"type":"Point","coordinates":[101.686855,3.139003]},